,number,street,city,district_x,postcode,geoapi_id,request_id,lat,long,accuracy,public_place,erro
0,285,RUA ANTONIO FRANCISCO PEREIRA,JUQUITIBA,BARNABES,,Google,9997,-23.9861373,-47.1443141,,RUA ANTONIO FRANCISCO PEREIRA,0.0893938054386665
1,09,ESTRADA DAS PEREIRAS,JUQUITIBA,JUQUITIBA,,OpenRouteService,9998,-23.938906,-47.024205,0.6,ESTRADA DAS PEREIRAS,8.971610930920855
2,31,RUA ANTONIO SOARES GODINHO,JUQUITIBA,BARNABES,,Google,9999,-23.9856654,-47.1455556,,RUA ANTONIO SOARES GODINHO,0.0058160200796089
3,35,RUA ANTONIO SOARES GODINHO,JUQUITIBA,BARNABES,,Google,10000,-23.9856654,-47.1455556,,RUA ANTONIO SOARES GODINHO,0.0022165529406017
4,413,RUA ANTONIO SOARES GODINHO,JUQUITIBA,BARNABES,,TomTom,10001,-23.9851,-47.14578,12.1519870758,RUA ANTONIO SOARES GODINHO,0.1437032317136728
5,20,RUA DOS LAGOS,JUQUITIBA,BARNABES,,Google,10002,-23.939245,-47.03941289999999,,RUA DOS LAGOS,10.74263007203418
6,100,ESTRADA CACHOEIRA DO FRANCA,JUQUITIBA,BARNABES,,Google,10003,-23.9552935,-47.1204002,,ESTRADA CACHOEIRA DO FRANCA,0.0402203836428151
7,       195,CACHOEIRA DO FRANCA,JUQUITIBA,JUQUITIBA,,Google,10004,-23.9549522,-47.1203293,,CACHOEIRA DO FRANCA,0.7676422073007009
8,400,RUA OSWALDO BARBOSA GUIMARAES,JUQUITIBA,JUQUITIBA,,Google,10005,-23.9393242,-47.0711697,,RUA OSWALDO BARBOSA GUIMARAES,0.814189923617226
9,10,RUA 28 DE MARCO,JUQUITIBA,JUQUITIBA,,TomTom,10006,-23.93145,-47.07401,12.5195684433,RUA 28 DE MARCO,0.1115953133117731
10,111,AVENIDA 31 DE MARCO,JUQUITIBA,JUQUITIBA,,Google,10007,-23.929852,-47.0714329,,AVENIDA 31 DE MARCO,0.0064645759432439
11,        31,TRINTA E UM DE MARÇO,JUQUITIBA,JUQUITIBA,,MapBox,10008,-23.93031,-47.070877,0.801728,TRINTA E UM DE MARÇO,1.218621479155221
12,112,AVENIDA JUSCELINO KUBTSCHEK DE OLIVEIRA,JUQUITIBA,JUQUITIBA,,Google,10009,-23.932132,-47.0694159,,AVENIDA JUSCELINO KUBTSCHEK DE OLIVEIRA,0.019342760896502
13,165,AVENIDA NOSSA SRA APARECIDA,JUQUITIBA,JUQUITIBA,,TomTom,10010,-23.92777,-47.07039,14.0621442795,AVENIDA NOSSA SRA APARECIDA,0.1541778993581325
14,80,RUA JORGE VICTOR VIEIRA,JUQUITIBA,JUQUITIBA,,MapBox,10011,-23.932295,-47.067551,0.795556,RUA JORGE VICTOR VIEIRA,0.0262691126255397
15,200,RUA ARMANDO SÃO DE OLIVEIRA,JUQUITIBA,JUQUITIBA,,TomTom,10012,-23.93076,-47.06746,15.6171998978,RUA ARMANDO SÃO DE OLIVEIRA,0.1275752293403332
16,102,RUA BRIGADEIRO JOSE VICENTE FARIA,JUQUITIBA,JUQUITIBA,,Google,10013,-23.9303533,-47.0707964,,RUA BRIGADEIRO JOSE VICENTE FARIA,0.7916535836698784
17,27,BRIGADEIRO FARIA LIMA,JUQUITIBA,JUQUITIBA,,MapBox,10014,-23.935628,-47.065513,0.787619,BRIGADEIRO FARIA LIMA,0.0416637692416231
18,102,RUA BRIGADEIRO FARIA LIMA,JUQUITIBA,JUQUITIBA,,OpenRouteService,10015,-23.935182,-47.065234,0.8,RUA BRIGADEIRO FARIA LIMA,0.051047830272823
19,1811,AVENIDA 31 DE MARCO,JUQUITIBA,JUQUITIBA,,Google,10016,-23.9174307,-47.082275,,AVENIDA 31 DE MARCO,0.4767773900772689
20,50,EST GREGORIO P OLIVEIRA,JUQUITIBA,JUQUITIBA,,Google,10017,-23.9303533,-47.0707964,,EST GREGORIO P OLIVEIRA,1.2709861052152012
21,3500,RUA AMELIA C F GUIMARAES,JUQUITIBA,JUQUITIBA,,TomTom,10018,-23.94258,-47.05002,14.4698095322,RUA AMELIA C F GUIMARAES,1.468844196176904
22,7000,ESTRADA SP 57,JUQUITIBA,JUQUITIBA,,Google,10019,-23.9664262,-46.993748,,ESTRADA SP 57,2.1428040544082934
23,196,RUA DAS VIOLETAS,JUQUITIBA,JUQUITIBA,,TomTom,10020,-23.92941,-47.00806,11.9449415207,RUA DAS VIOLETAS,0.0708955984633837
24,44,RUA DAS HORTENCIAS,JUQUITIBA,JUQUITIBA,,TomTom,10021,-23.929,-47.00922,11.9449415207,RUA DAS HORTENCIAS,0.0344559835111769
25,50,RUA ANTONIO OLIV CAMARGO,JUQUITIBA,JUQUITIBA,,TomTom,10022,-23.92712,-46.99537,11.6530742645,RUA ANTONIO OLIV CAMARGO,0.0593897300588694
26,125,BAIRRO 116 KM 317,JUQUITIBA,JUQUITIBA,,MapBox,10023,-23.91736,-46.989827,0.684444,BAIRRO 116 KM 317,0.8051202560375317
27,S/N,RUA JOAO FRANCO DE CAMARGO,JUQUITIBA,JUQUITIBA,,OpenRouteService,10024,-23.953439,-46.981677,0.8,RUA JOAO FRANCO DE CAMARGO,0.3379029659206782
28,550,RUA JOAO PEREIRA DONA SILVA,JUQUITIBA,JUQUITIBA,,TomTom,10025,-23.89696,-46.98862,12.2520418167,RUA JOAO PEREIRA DONA SILVA,0.0127411192210889
29,195,RUA SANTA CRUZ,SAO LOURENCO DONA SERRA,SAO LOURENCO DA SERRA,,Google,10026,-23.885031,-46.9764825,,RUA SANTA CRUZ,0.0740622589359229
30,386,RUA JOAO ALFREDO DE MORAES,SAO LOURENCO DONA SERRA,SAO LOURENCO DA SERRA,,MapBox,10027,-23.8557005,-46.9472341,0.582593,RUA JOAO ALFREDO DE MORAES,0.1224570177339947
31,300,RUA JOAO ALFREDO DE MORAES,SAO LOURENCO DONA SERRA,SAO LOURENCO DA SERRA,,MapBox,10028,-23.8557005,-46.9472341,0.582593,RUA JOAO ALFREDO DE MORAES,0.0601880511652347
32,S/N,ESTRADA DAS LARANJEIRAS,JUQUITIBA,JUQUITIBA,,TomTom,10029,-23.84396,-47.06518,12.0224943161,ESTRADA DAS LARANJEIRAS,3.1403790940306857
33,201,TUPI DONA MATA,COTIA,CAUCAIA DO ALTO,,Google,10030,-23.6631695,-47.074156,,TUPI DONA MATA,0.0050156573533121
34,S/N,RUA TUPI DONA MATA,COTIA,CAUCAIA DO ALTO,,TomTom,10031,-23.6627,-47.07391,11.7734861374,RUA TUPI DONA MATA,0.0441659898086724
35,1,RUA MARIA QUITERIA,COTIA,CAUCAIA DO ALTO,,OpenRouteService,10032,-23.626201,-46.938771,0.6,RUA MARIA QUITERIA,14.378118829424446
36,S/N,EST CAPELINHA,COTIA,CAUCAIA DO ALTO,,Google,10033,-23.7346197,-47.0250059,,EST CAPELINHA,0.4240157257826261
37,S/N,ESTRADA DOS NEVES,COTIA,CAUCAIA DO ALTO,,Google,10034,-23.7499215,-47.015147,,ESTRADA DOS NEVES,0.2291818996460893
38,58,ESTRADA DAS LARANJEIRAS,SAO LOURENCO DONA SERRA,SAO LOURENCO DA SERRA,,TomTom,10035,-23.81792,-46.99344,14.3216438293,ESTRADA DAS LARANJEIRAS,2.0573083761355297
39,1100,ESTRADA MARIA SOARES PEREIRA,SAO LOURENCO DONA SERRA,SAO LOURENCO DA SERRA,,Google,10036,-23.8488556,-46.9570999,,ESTRADA MARIA SOARES PEREIRA,0.2642636829608962
40,09,RUA HONORIO AUGUSTO DE CAMARGO,SAO LOURENCO DONA SERRA,SAO LOURENCO DA SERRA,,Google,10037,-23.8541752,-46.9471776,,RUA HONORIO AUGUSTO DE CAMARGO,0.0488875639960565
41,60,RUA DOUTOR ROBERTO FADLO DAHER,SAO LOURENCO DONA SERRA,SAO LOURENCO DA SERRA,,TomTom,10038,-23.85427,-46.94268,16.1579875946,RUA DOUTOR ROBERTO FADLO DAHER,0.0636579556913068
42,144,RUA DOUTOR MARIO PRADO DE SOUZA,SAO LOURENCO DONA SERRA,SAO LOURENCO DA SERRA,,MapBox,10039,-23.854689,-46.942074,0.633875,RUA DOUTOR MARIO PRADO DE SOUZA,0.0729446775152427
43,35,PRACA DEZ DE AGOSTO,SAO LOURENCO DONA SERRA,SAO LOURENCO DA SERRA,,Google,10040,-23.8521263,-46.9433448,,PRACA DEZ DE AGOSTO,0.0789729093249138
44,131,RUA ELVIS ANDRE DE CAMPOS,SAO LOURENCO DONA SERRA,SAO LOURENCO DA SERRA,,Google,10041,-23.8823259,-46.9749499,,RUA ELVIS ANDRE DE CAMPOS,5.127409782788503
45,270,RUA DAS PRIMAVERAS,SAO LOURENCO DONA SERRA,SAO LOURENCO DA SERRA,,Google,10042,-23.8178592,-46.92992659999999,,RUA DAS PRIMAVERAS,0.1918833247998053
46,660,RUA ANTONIO DESPEZZIO,SAO LOURENCO DONA SERRA,SAO LOURENCO DA SERRA,,TomTom,10043,-23.82724,-46.92796,12.1517305374,RUA ANTONIO DESPEZZIO,0.9233613623202236
47,2,RUA DONA COMUNIDADE,SAO LOURENCO DONA SERRA,SAO LOURENCO DA SERRA,,TomTom,10044,-23.81765,-46.92991,12.9713935852,RUA DONA COMUNIDADE,0.1043013008292462
48,SN,ESTRADA FRANCISCO CASTRO NEVES BR116,SAO LOURENCO DONA SERRA,SAO LOURENCO DA SERRA,,TomTom,10045,-23.8052,-46.92296,16.4102230072,ESTRADA FRANCISCO CASTRO NEVES BR116,0.5065515130598338
49,1670,ESTRADA DOS LUSITANOS,COTIA,CAUCAIA DO ALTO,,TomTom,10046,-23.71492,-47.05781,11.538482666,ESTRADA DOS LUSITANOS,1.544770132408087
50,300,ESTRADA SANT ANNA,COTIA,CAUCAIA DO ALTO,,Google,10047,-23.6986661,-47.0334268,,ESTRADA SANT ANNA,1.5793544393269632
51,40,AVENIDA TAQUARACU,COTIA,CAUCAIA DO ALTO,,Google,10048,-23.7025503,-47.0259279,,AVENIDA TAQUARACU,0.003967405120642
52,107,RUA ANTONIO VAZ PIRES,COTIA,CAUCAIA DO ALTO,,TomTom,10049,-23.66187,-47.0487,11.8743286133,RUA ANTONIO VAZ PIRES,0.0947808499845771
53,76,RUA EXISTENTE,COTIA,CAUCAIA DO ALTO,,Google,10050,-23.6870059,-47.0318292,,RUA EXISTENTE,2.2318833546047445
54,2930,ESTRADA DONA AGUA ESPRAIADA,COTIA,CAUCAIA DO ALTO,,TomTom,10051,-23.66131,-47.04769,11.6111783981,ESTRADA DONA AGUA ESPRAIADA,0.6393836596886003
55,73,RUA JOSEFINA PIRES NUNES,COTIA,COTIA,,TomTom,10052,-23.68585,-47.03109,14.0621442795,RUA JOSEFINA PIRES NUNES,0.0145104035826281
56,730,AVENIDA LUIS SACRAMENTO,COTIA,CAUCAIA DO ALTO,,Google,10053,-23.6902811,-47.0267595,,AVENIDA LUIS SACRAMENTO,0.0675604704013158
57,S/N,RUA TERUO TOMITA,COTIA,CAUCAIA DO ALTO,,Google,10054,-23.6906196,-47.0258359,,RUA TERUO TOMITA,0.0307722428563167
58,45,ASIA,COTIA,CAUCAIA DO ALTO,,MapBox,10055,-23.6877121,-47.0240544,0.627778,ASIA,0.0516573033460535
59,405,AVENIDA INOCENCIO PIRES DE OLIVEIRA,COTIA,CAUCAIA DO ALTO,,Google,10056,-23.6846942,-47.02385959999999,,AVENIDA INOCENCIO PIRES DE OLIVEIRA,0.1902852590892244
60,91,RUA JOSE LOPES NETO,COTIA,CAUCAIA DO ALTO,,MapBox,10057,-23.68366675,-47.0231856527529,0.74,RUA JOSE LOPES NETO,0.0251223139019102
61,384,RUA JOSE LOPES NETO,COTIA,CAUCAIA DO ALTO,,MapBox,10058,-23.683667,-47.023186,0.795556,RUA JOSE LOPES NETO,0.1498317721927509
62,15,RUA JOSE DO PATROCINIO,COTIA,CAUCAIA DO ALTO,,TomTom,10059,-23.67529,-47.02522,14.0621442795,RUA JOSE DO PATROCINIO,0.0206106703214932
63,125,RUA MARIA DE JESUS DOS SANTOS,COTIA,CAUCAIA DO ALTO,,OpenRouteService,10060,-23.626201,-46.938771,0.6,RUA MARIA DE JESUS DOS SANTOS,9.86975015652029
64,159,RUA URUPEMA,COTIA,COTIA,,Google,10061,-23.6692979,-47.0220692,,RUA URUPEMA,0.0202826303279829
65,1309,RUA KATOJI SOGABE,COTIA,CAUCAIA DO ALTO,,Google,10062,-23.6676904,-47.0231433,,RUA KATOJI SOGABE,0.0100592430153393
66,310,ESTRADA DOS MENDES,COTIA,CAUCAIA DO ALTO,,MapBox,10063,-23.760919,-47.028269,0.787619,ESTRADA DOS MENDES,6.760006275572513
67,500,AVENIDA LUIZ FERREIRA GIL,COTIA,CAUCAIA DO ALTO,,MapBox,10064,-23.692683,-47.020647,0.795556,AVENIDA LUIZ FERREIRA GIL,0.1746169287220881
68,862,AVENIDA INOCENCIO PIRES DE OLIVEIRA,COTIA,CAUCAIA DO ALTO,,TomTom,10065,-23.68483,-47.02364,14.7985601425,AVENIDA INOCENCIO PIRES DE OLIVEIRA,0.4491273475553201
69,731,ESTRADA DONA ESTACAO,COTIA,COTIA,,Google,10066,-23.6831774,-47.0152678,,ESTRADA DONA ESTACAO,0.39036537632833
70,39,RUA ANTONIA XAVIER PIRES,COTIA,CAUCAIA DO ALTO,,TomTom,10067,-23.69684,-47.01666,10.8903331757,RUA ANTONIA XAVIER PIRES,2.187790942248526
71,450,ESTRADA AGUA ESPRAIADA,COTIA,CAUCAIA DO ALTO,,Google,10068,-23.6612482,-47.0474884,,ESTRADA AGUA ESPRAIADA,1.0381814947108876
72,5726,RUA PAULINO VAZ,COTIA,CAUCAIA DO ALTO,,TomTom,10069,-23.6581,-47.0235,10.3456935883,RUA PAULINO VAZ,0.0888355505711378
73,154,AVENIDA FERNANDO DE NORONHA,VARGEM GRANDE PAULISTA,VARGEM GRANDE PAULISTA,,MapBox,10070,-23.613336,-47.0427,0.806667,AVENIDA FERNANDO DE NORONHA,0.3400816349823775
74,340,AVENIDA FERNANDO DE NORONHA,VARGEM GRANDE PAULISTA,VARGEM GRANDE PAULISTA,,TomTom,10071,-23.61363,-47.04337,18.1902885437,AVENIDA FERNANDO DE NORONHA,0.0192026401995741
75,80,RUA CANDIDA MARIA RODRIGUES DOS SANTOS,VARGEM GRANDE PAULISTA,VARGEM GRANDE PAULISTA,,Google,10072,-23.6184089,-47.03283949999999,,RUA CANDIDA MARIA RODRIGUES DOS SANTOS,0.1984150871332882
76,180,LUIS MOURAO,VARGEM GRANDE PAULISTA,VARGEM GRANDE PAULISTA,,Google,10073,-23.6124904,-47.0263411,,LUIS MOURAO,0.037944180810837
77,100,ESTRADA LUIZ MOURAO,VARGEM GRANDE PAULISTA,VARGEM GRANDE PAULISTA,,MapBox,10074,-23.611946,-47.026239,0.801728,ESTRADA LUIZ MOURAO,0.0212348216906496
78,133,CABREUVA,VARGEM GRANDE PAULISTA,VARGEM GRANDE PAULISTA,,Google,10075,-23.6074675,-47.0299388,,CABREUVA,0.0165311139016028
79,83,RUA MARIA ANDRADE DE OLIVEIRA,VARGEM GRANDE PAULISTA,VARGEM GRANDE PAULISTA,,Google,10076,-23.6074157,-47.0292871,,RUA MARIA ANDRADE DE OLIVEIRA,0.0028232339010932
80,234,AVENIDA EMBUIA,VARGEM GRANDE PAULISTA,VARGEM GRANDE PAULISTA,,TomTom,10077,-23.60808,-47.02793,13.9074802399,AVENIDA EMBUIA,0.053790962280408
81,119,RUA BENJAMIM VIEIRA DE OLIVEIRA,VARGEM GRANDE PAULISTA,VARGEM GRANDE PAULISTA,,MapBox,10078,-23.60660185,-47.0279688907793,0.770303,RUA BENJAMIM VIEIRA DE OLIVEIRA,0.0395608151081964
82,309,RUA PROFESSOR VALDECIR CAMPESTRE,VARGEM GRANDE PAULISTA,VARGEM GRANDE PAULISTA,,TomTom,10079,-23.60375,-47.02391,18.1833972931,RUA PROFESSOR VALDECIR CAMPESTRE,0.0188627721048477
83,83,RUA MARIO SCARVANCE,VARGEM GRANDE PAULISTA,VARGEM GRANDE PAULISTA,,TomTom,10080,-23.6048,-47.0225,16.0661945343,RUA MARIO SCARVANCE,0.0116652374285924
84,40,ALAMEDA ANGELICA,VARGEM GRANDE PAULISTA,VARGEM GRANDE PAULISTA,,Google,10081,-23.5979826,-47.0283072,,ALAMEDA ANGELICA,0.0269957944667754
85,90,ALAMEDA ANGELICA,VARGEM GRANDE PAULISTA,VARGEM GRANDE PAULISTA,,Google,10082,-23.5979305,-47.0288597,,ALAMEDA ANGELICA,0.0119577711420443
86,561,RUA LA PAZ,VARGEM GRANDE PAULISTA,VARGEM GRANDE PAULISTA,,OpenRouteService,10083,-23.600486,-47.023459,0.8,RUA LA PAZ,0.0366729452595652
87,1046,RUA DOUTOR RENE CORREA,VARGEM GRANDE PAULISTA,VARGEM GRANDE PAULISTA,,Google,10084,-23.5973835,-47.018945,,RUA DOUTOR RENE CORREA,0.4504008646688004
88,1000,RUA RENE CORREA,VARGEM GRANDE PAULISTA,VARGEM GRANDE PAULISTA,,TomTom,10085,-23.59891,-47.02299,14.0408287048,RUA RENE CORREA,0.0378917025996617
89,1088,RUA DOUTOR RENE CORREA,VARGEM GRANDE PAULISTA,VARGEM GRANDE PAULISTA,,TomTom,10086,-23.59891,-47.02299,16.7374134064,RUA DOUTOR RENE CORREA,0.0378917025996617
90,5011,AVENIDA IVO MARIO ISAAC PIRES,VARGEM GRANDE PAULISTA,VARGEM GRANDE PAULISTA,,TomTom,10087,-23.60346,-47.02196,11.638094902,AVENIDA IVO MARIO ISAAC PIRES,0.3971614987995784
91,23,RUA PONTA NEGRA,VARGEM GRANDE PAULISTA,VARGEM GRANDE PAULISTA,,MapBox,10088,-23.6499314,-47.0043129916179,0.752346,RUA PONTA NEGRA,0.0385452866306538
92,91,RUA PERUIBE,VARGEM GRANDE PAULISTA,VARGEM GRANDE PAULISTA,,MapBox,10089,-23.649691,-47.003524,0.795556,RUA PERUIBE,0.0091985596751606
93,2400,RUA MINERACAO OURO BRANCO,VARGEM GRANDE PAULISTA,VARGEM GRANDE PAULISTA,,MapBox,10090,-23.6397292,-46.9951058,0.762222,RUA MINERACAO OURO BRANCO,0.9122786383880276
94,2880,EST MINERACAO OURO BRANCO,VARGEM GRANDE PAULISTA,VARGEM GRANDE PAULISTA,,MapBox,10091,-23.6397292,-46.9951058,0.663333,EST MINERACAO OURO BRANCO,0.0827765076868908
95,176,RUA SAO PAULO DAS MISSOES,VARGEM GRANDE PAULISTA,VARGEM GRANDE PAULISTA,,TomTom,10092,-23.63876,-46.99241,20.2602729797,RUA SAO PAULO DAS MISSOES,0.1046581573122508
96,04,RUA NATUREZA,VARGEM GRANDE PAULISTA,VARGEM GRANDE PAULISTA,,MapBox,10093,-23.6342515,-46.9918158,0.74,RUA NATUREZA,0.0106204764041782
97,330,ESTRADA DO MATAO,VARGEM GRANDE PAULISTA,VARGEM GRANDE PAULISTA,,OpenRouteService,10094,-23.610056,-47.025925,0.8,ESTRADA DO MATAO,1.781280961001931
98,1915,ESTRADA DO MATAO,VARGEM GRANDE PAULISTA,VARGEM GRANDE PAULISTA,,TomTom,10095,-23.62154,-47.01775,15.9955806732,ESTRADA DO MATAO,0.3787768445647604
99,649,RUA JOSE MANOEL DE OLIVEIRA,VARGEM GRANDE PAULISTA,VARGEM GRANDE PAULISTA,,OpenRouteService,10096,-23.611587,-47.020501,0.8,RUA JOSE MANOEL DE OLIVEIRA,0.0649406055341279
100,42,RUA IRARA,VARGEM GRANDE PAULISTA,VARGEM GRANDE PAULISTA,,Google,10097,-23.6088032,-47.01885739999999,,RUA IRARA,0.1849108102866628
101,239,RUA JOAO XXIII,VARGEM GRANDE PAULISTA,VARGEM GRANDE PAULISTA,,Google,10098,-23.6126677,-47.0071998,,RUA JOAO XXIII,0.9924235712281594
102,1300,RUA JOSE MANUEL DE OLIVEIRA,VARGEM GRANDE PAULISTA,VARGEM GRANDE PAULISTA,,Google,10099,-23.6145701,-47.01669450000001,,RUA JOSE MANUEL DE OLIVEIRA,0.1867176738847302
103,65,RUA SANTA MARGARITA,VARGEM GRANDE PAULISTA,VARGEM GRANDE PAULISTA,,OpenRouteService,10100,-23.621668,-47.018517,0.6,RUA SANTA MARGARITA,0.5619348322225473
104,127,ALAMEDA DAS CEREJEIRAS,VARGEM GRANDE PAULISTA,VARGEM GRANDE PAULISTA,,TomTom,10101,-23.62402,-47.01192,13.1345596313,ALAMEDA DAS CEREJEIRAS,0.0981360524454109
105,251,CRISANTEMOS,VARGEM GRANDE PAULISTA,VARGEM GRANDE PAULISTA,,OpenRouteService,10102,-23.622121,-47.011172,0.8,CRISANTEMOS,0.0203952654488497
106,1285,JOSE MANOEL DE ALMEIDA,VARGEM GRANDE PAULISTA,VARGEM GRANDE PAULISTA,,MapBox,10103,-23.621501,-47.008872,0.806667,JOSE MANOEL DE ALMEIDA,0.1185647821123777
107,90,JOSE MANOEL DE OLIVEIRA,VARGEM GRANDE PAULISTA,VARGEM GRANDE PAULISTA,,Google,10104,-23.6065854,-47.0225543,,JOSE MANOEL DE OLIVEIRA,0.2026414335383586
108,234,RUA SANTANA,VARGEM GRANDE PAULISTA,VARGEM GRANDE PAULISTA,,TomTom,10105,-23.60835,-47.01604,14.0704584122,RUA SANTANA,0.0174471340845587
109,200,RUA JOAQUIM SOARES RODRIGUES,VARGEM GRANDE PAULISTA,VARGEM GRANDE PAULISTA,,TomTom,10106,-23.60633,-47.00716,18.1833972931,RUA JOAQUIM SOARES RODRIGUES,0.0332271809051462
110,150,RUA JOAQUIM SOARES RODRIGUES,VARGEM GRANDE PAULISTA,VARGEM GRANDE PAULISTA,,OpenRouteService,10107,-23.605799,-47.006688,0.8,RUA JOAQUIM SOARES RODRIGUES,0.0432995546370583
111,505,AVELINO SOARES RODRIGUES,VARGEM GRANDE PAULISTA,VARGEM GRANDE PAULISTA,,TomTom,10108,-23.6037,-47.00863,14.4983215332,AVELINO SOARES RODRIGUES,0.196026056179192
112,1100,RUA IFEMA,VARGEM GRANDE PAULISTA,VARGEM GRANDE PAULISTA,,TomTom,10109,-23.59943,-47.01079,13.9074802399,RUA IFEMA,0.0721679220399861
113,1050,RUA IFEMA,VARGEM GRANDE PAULISTA,VARGEM GRANDE PAULISTA,,TomTom,10110,-23.59941,-47.01088,13.9074802399,RUA IFEMA,0.1296670865405202
114,130,RUA DOS JORNALISTAS,VARGEM GRANDE PAULISTA,VARGEM GRANDE PAULISTA,,MapBox,10111,-23.6179182,-47.0042095,0.752346,RUA DOS JORNALISTAS,0.0208865322375361
115,720,AVENIDA DOS INDUSTRIAIS,VARGEM GRANDE PAULISTA,VARGEM GRANDE PAULISTA,,Google,10112,-23.61996,-47.0029468,,AVENIDA DOS INDUSTRIAIS,0.2391681611100915
116,41,RUA DOS ENCANADORES,VARGEM GRANDE PAULISTA,VARGEM GRANDE PAULISTA,,TomTom,10113,-23.61633,-47.00447,16.2544708252,RUA DOS ENCANADORES,0.2543407675804919
117,387,RUA DOS ENCANADORES,VARGEM GRANDE PAULISTA,VARGEM GRANDE PAULISTA,,TomTom,10114,-23.61883,-47.00539,16.0661945343,RUA DOS ENCANADORES,0.3123868238268065
118,27,RUA CAMARAO,VARGEM GRANDE PAULISTA,VARGEM GRANDE PAULISTA,,TomTom,10115,-23.64411,-46.99719,12.894276619,RUA CAMARAO,3.2254127370444508
119,411,RUA SOLIMOES,VARGEM GRANDE PAULISTA,VARGEM GRANDE PAULISTA,,TomTom,10116,-23.60407,-47.00327,13.9074802399,RUA SOLIMOES,0.0106148856624192
120,104,RUA PROJETADA,VARGEM GRANDE PAULISTA,VARGEM GRANDE PAULISTA,,MapBox,10117,-23.6120019,-47.019661,0.74,RUA PROJETADA,2.656187680291544
121,1350,ESTRADA DO MARACANDUVA,VARGEM GRANDE PAULISTA,VARGEM GRANDE PAULISTA,,MapBox,10118,-23.60192,-46.993716,0.801728,ESTRADA DO MARACANDUVA,0.2933572244582388
122,351,ESTRADA DONA RESSACA,COTIA,COTIA,,Google,10119,-23.698222,-46.9167387,,ESTRADA DONA RESSACA,1.451596003243729
123,1792,ESTRADA DOS FIGUEIROA,COTIA,COTIA,,OpenRouteService,10120,-23.626201,-46.938771,0.6,ESTRADA DOS FIGUEIROA,5.619104427283537
124,386,EST MULATAS,COTIA,COTIA,,Google,10121,-23.649241,-46.961224,,EST MULATAS,0.3628026984352792
125,6650,EST MORRO GRANDE,COTIA,COTIA,,Google,10122,-23.6474669,-46.9590512,,EST MORRO GRANDE,0.0879979755610039
126,5275,EST CACHOEIRINHA DONA,COTIA,COTIA,,OpenRouteService,10123,-23.626201,-46.938771,0.6,EST CACHOEIRINHA DONA,3.224279851233587
127,802,AVENIDA IVO MARIO ISAAC PIRES KM 1,COTIA,COTIA,,MapBox,10124,-23.6399687,-46.9889987,0.689495,AVENIDA IVO MARIO ISAAC PIRES KM 1,2.542683813072386
128,1000,ESTRADA TABULEIRO VERDE,COTIA,COTIA,,MapBox,10125,-23.6380445,-46.9728429,0.658254,ESTRADA TABULEIRO VERDE,0.9881158487184863
129,410,AVENIDA SABIA,ITAPEVI,ITAPEVI,,OpenRouteService,10126,-23.551383,-46.966731,0.6,AVENIDA SABIA,5.277556855567831
130,169,RUA SAO SEBASTIAO,ITAPEVI,ITAPEVI,,OpenRouteService,10127,-23.553664,-46.911076,0.8,RUA SAO SEBASTIAO,7.670389040950228
131,629,RUA NELSON EZEQUIEL DE FARIAS,ITAPEVI,ITAPEVI,,OpenRouteService,10128,-23.55203,-46.91314,0.8,RUA NELSON EZEQUIEL DE FARIAS,7.540996020047854
132,36,RUA PERIQUITO,ITAPEVI,ITAPEVI,,TomTom,10129,-23.59661,-46.96424,9.7862281799,RUA PERIQUITO,0.0803227025974024
133,445,EST FISCHER SÃO DOS,COTIA,COTIA,,Google,10130,-23.6333168,-46.9466649,,EST FISCHER SÃO DOS,0.6561678689561634
134,S/N,ESTRADA DOS FICHER,COTIA,COTIA,,Google,10131,-23.6333168,-46.9466649,,ESTRADA DOS FICHER,0.0385131449429547
135,90,RUA SAO JANUARIO,COTIA,COTIA,,Google,10132,-23.6336996,-46.9368426,,RUA SAO JANUARIO,0.0454636198820294
136,99,RUA SAO JEREMIAS,COTIA,COTIA,,Google,10133,-23.6309784,-46.9397438,,RUA SAO JEREMIAS,0.037921197817966
137,135,RUA SAO SERAFIM,COTIA,COTIA,,TomTom,10134,-23.63363,-46.93747,12.0849208832,RUA SAO SERAFIM,0.0371858401013627
138,60,RUA DOLORES DURAM,COTIA,COTIA,,TomTom,10135,-23.61771,-46.95274,11.4913272858,RUA DOLORES DURAM,0.0422055466036825
139,24,RUA DOLORES DURAN,COTIA,COTIA,,Google,10136,-23.6180172,-46.9526304,,RUA DOLORES DURAN,0.0448071014710973
140,201,RUA JOSE MONTEIRO FONSECA,COTIA,COTIA,,OpenRouteService,10137,-23.624772,-46.949817,0.8,RUA JOSE MONTEIRO FONSECA,0.0787239215213862
141,111,RUA MAISA,COTIA,COTIA,,MapBox,10138,-23.6192543,-46.9519599,0.687016,RUA MAISA,0.0111442298672344
142,391,RUA CARMEM MIRANDA,COTIA,COTIA,,Google,10139,-23.6190264,-46.9500983,,RUA CARMEM MIRANDA,0.0252996171230739
143,167,AUSTRALIA,COTIA,COTIA,,Google,10140,-23.6059252,-46.926502,,AUSTRALIA,2.7779854966825828
144,230,RUA NOVA ODESSA,COTIA,COTIA,,TomTom,10141,-23.61753,-46.94344,12.0849208832,RUA NOVA ODESSA,0.0456853242289938
145,546,EST VELHA OLARIA DONA,COTIA,COTIA,,MapBox,10142,-23.619709,-46.937591,0.660556,EST VELHA OLARIA DONA,0.3458156805010118
146,120,ACRE,COTIA,COTIA,,TomTom,10143,-23.60745,-46.94359,7.372800827,ACRE,0.6466382764401115
147,286,RUA IPIRANGA,COTIA,COTIA,,OpenRouteService,10144,-23.612688,-46.944583,0.8,RUA IPIRANGA,0.0304580392956431
148,390,ESTRADA MORRO GRANDE,COTIA,COTIA,,Google,10145,-23.608083,-46.94689899999999,,ESTRADA MORRO GRANDE,0.0847307169560458
149,244,RUA IRMA LEONOR DE SAO JOSE,COTIA,COTIA,,OpenRouteService,10146,-23.60868,-46.945776,0.8,RUA IRMA LEONOR DE SAO JOSE,0.0121736107472354
150,1445,EST VELHA DONA OLARIA,COTIA,COTIA,,Google,10147,-23.6247038,-46.9381973,,EST VELHA DONA OLARIA,0.0220511301711649
151,2451,EST VELHA DONA OLARIA,COTIA,COTIA,,Google,10148,-23.6200241,-46.9372504,,EST VELHA DONA OLARIA,0.0615471312345367
152,167,AVENIDA RIBEIRAO PIRES,COTIA,COTIA,,Google,10149,-23.6196245,-46.9348517,,AVENIDA RIBEIRAO PIRES,0.1052517603854291
153,65,RUA CABRALIA,COTIA,COTIA,,TomTom,10150,-23.61128,-46.93875,9.9009103775,RUA CABRALIA,0.0475347589154044
154,506,INACIO,COTIA,COTIA,,Google,10151,-23.6172225,-46.9328935,,INACIO,0.0088380450298954
155,444,ESTRADA PADRE INACIO,COTIA,COTIA,,TomTom,10152,-23.61712,-46.93327,12.0849208832,ESTRADA PADRE INACIO,0.090961439742355
156,10,MIRADOR,COTIA,COTIA,,MapBox,10153,-23.613398,-46.935264,0.698889,MIRADOR,0.0686582630655108
157,181,RUA DAS BANANEIRAS,COTIA,COTIA,,MapBox,10154,-23.621815,-46.927268,0.787619,RUA DAS BANANEIRAS,0.0288540665038085
158,450,RUA DOS COQUEIRAIS,COTIA,COTIA,,TomTom,10155,-23.62027,-46.92862,10.3456935883,RUA DOS COQUEIRAIS,0.3542717715419426
159,451,RUA AMEIXEIRAS,COTIA,COTIA,,Google,10156,-23.6229717,-46.9271354,,RUA AMEIXEIRAS,0.2724983024200608
160,420,RUA AMEIXEIRAS,COTIA,COTIA,,TomTom,10157,-23.62257,-46.92752,9.0864944458,RUA AMEIXEIRAS,0.2974508063494435
161,200,RUA EXACTA,COTIA,COTIA,,OpenRouteService,10158,-23.608708,-46.930829,0.8,RUA EXACTA,0.1931600461591298
162,73,RUA ILOPOLIS,COTIA,COTIA,,OpenRouteService,10159,-23.603514,-46.940283,0.8,RUA ILOPOLIS,0.0285405242641224
163,173,MIRAGUAI,COTIA,COTIA,,TomTom,10160,-23.60313,-46.9368,7.372800827,MIRAGUAI,0.0027706935086264
164,560,LYONS,COTIA,COTIA,,Google,10161,-23.6064347,-46.93375200000001,,LYONS,0.0153011379348947
165,420,AVENIDA ANTONIO MATIAS DE CAMARGO,COTIA,COTIA,,TomTom,10162,-23.60856,-46.92937,16.3349876404,AVENIDA ANTONIO MATIAS DE CAMARGO,0.0097463608418594
166,348,AVENIDA ANTONIO MATIAS DE CAMARGO,COTIA,COTIA,,TomTom,10163,-23.60819,-46.92903,16.3349876404,AVENIDA ANTONIO MATIAS DE CAMARGO,0.0079674132046869
167,98,RUA CYNIRA CRUZ,COTIA,COTIA,,OpenRouteService,10164,-23.605994,-46.928561,0.8,RUA CYNIRA CRUZ,0.0090922859206277
168,2011,AVENIDA PROFESSOR JOSE BARRETO,COTIA,COTIA,,TomTom,10165,-23.60148,-46.9092,14.5184354782,AVENIDA PROFESSOR JOSE BARRETO,2.012957686710075
169,2011,AVENIDA PROFESSOR JOSE BARRETO,COTIA,COTIA,,TomTom,10166,-23.60148,-46.9092,14.5184354782,AVENIDA PROFESSOR JOSE BARRETO,2.012957686710075
170,152,RUA BENEDITO LEMOS LEITE,COTIA,COTIA,,TomTom,10167,-23.60558,-46.92487,14.226934433,RUA BENEDITO LEMOS LEITE,0.0095596508562522
171,29,RUA PIRATININGA,COTIA,COTIA,,Google,10168,-23.6031268,-46.9255588,,RUA PIRATININGA,0.0300447635809665
172,315,RUA CANDIDO BALTHAZAR,COTIA,COTIA,,TomTom,10169,-23.60673,-46.94293,9.0428476334,RUA CANDIDO BALTHAZAR,1.8773072221211569
173,115,RUA SUDAO,COTIA,COTIA,,TomTom,10170,-23.59536,-46.93018,9.9009103775,RUA SUDAO,0.0086820884814239
174,57749,ESTRADA DE SANTA RITA KM 57 5 N,EMBUGUACU,EMBU-GUACU,,Google,10171,-23.9314426,-46.9081184,,ESTRADA DE SANTA RITA KM 57 5 N,0.9203091810341782
175,114,RUA DEOCLECIANO DOS SANTOS,EMBUGUACU,EMBU-GUACU,,Google,10172,-23.8722045,-46.7979146,,RUA DEOCLECIANO DOS SANTOS,6.561031594146114
176,285,AVENIDA SAN DIEGO,EMBUGUACU,EMBU-GUACU,,MapBox,10173,-23.5934841,-46.8322311,0.614339,AVENIDA SAN DIEGO,32.08320332076564
177,155,ESTRADA DO BAYNGTON,EMBUGUACU,EMBU-GUACU,,TomTom,10174,-23.88441,-46.84856,11.4560337067,ESTRADA DO BAYNGTON,0.8377593148283982
178,48,RUA DOS CICLAMES COM A ESTRADA DONA TIA ZULMIRA,EMBUGUACU,EMBU-GUACU,,Google,10175,-23.8309593,-46.8157739,,RUA DOS CICLAMES COM A ESTRADA DONA TIA ZULMIRA,5.165852639750539
179,58,RUA HERMES DONA FONSECA,EMBUGUACU,CIPO-GUACU,,TomTom,10176,-23.87233,-46.8059,11.6766757965,RUA HERMES DONA FONSECA,0.0438572404182073
180,1300,AVENIDA LUZA AUGUSTO CORREA,EMBUGUACU,CIPO-GUACU,,Google,10177,-23.8759749,-46.8020185,,AVENIDA LUZA AUGUSTO CORREA,0.034177366947482
181,17,PRACA HENRIQUE SCHUNCK,EMBUGUACU,CIPO-GUACU,,TomTom,10178,-23.87891,-46.79507,9.8316955566,PRACA HENRIQUE SCHUNCK,0.4542680284962411
182,33,AVENIDA HENRIQUE SCHUNCK,EMBUGUACU,CIPO-GUACU,,MapBox,10179,-23.882619,-46.796084,0.677831,AVENIDA HENRIQUE SCHUNCK,0.0394802825865419
183,415,SEZEFREDO KLEIN DOLL,EMBUGUACU,CIPO-GUACU,,MapBox,10180,-23.88224,-46.794089,0.677831,SEZEFREDO KLEIN DOLL,0.1495736022368825
184,415,RUA SEZEFREDO KLEIN DOLL,EMBUGUACU,CIPO-GUACU,,MapBox,10181,-23.88224,-46.794089,0.693704,RUA SEZEFREDO KLEIN DOLL,0.1495736022368825
185,37,RUA JAVINA SCHUNCK,EMBUGUACU,CIPO-GUACU,,TomTom,10182,-23.87986,-46.79297,9.0684242249,RUA JAVINA SCHUNCK,0.4685700693282903
186,7,RUA JOAQUIM DONA SILVA,EMBUGUACU,CIPO-GUACU,,Google,10183,-23.8793201,-46.7942938,,RUA JOAQUIM DONA SILVA,0.0030824656192947
187,90,RUA WANDERLEI COSTA,EMBUGUACU,CIPO-GUACU,,Google,10184,-23.8344997,-46.8259825,,RUA WANDERLEI COSTA,3.01573589610207
188,23,RUA SEIS,EMBUGUACU,CIPO-GUACU,,TomTom,10185,-23.85452,-46.79452,9.8826274872,RUA SEIS,4.274798680470562
189,138,RUA SILVESTRE DANTAS,EMBUGUACU,CIPO-GUACU,,Google,10186,-23.8815374,-46.7920323,,RUA SILVESTRE DANTAS,0.0279482533645945
190,22,RUA JOSE NOGUEIRA,EMBUGUACU,CIPO-GUACU,,TomTom,10187,-23.87854,-46.79112,12.0666389465,RUA JOSE NOGUEIRA,0.3553724129329283
191,290,AVENIDA DO MOINHO,EMBUGUACU,CIPO-GUACU,,TomTom,10188,-23.87861,-46.7853,11.9268712997,AVENIDA DO MOINHO,0.1499511988017547
192,186,RUA ANTONIO ADOLFO DONA SILVA,EMBUGUACU,CIPO-GUACU,,TomTom,10189,-23.87245,-46.78646,13.7759141922,RUA ANTONIO ADOLFO DONA SILVA,0.0197401911765045
193,765,RUA PE DONIZETI,EMBUGUACU,CIPO-GUACU,,Google,10190,-23.882631,-46.77899600000001,,RUA PE DONIZETI,0.0102015120905002
194,S/N,RUA PADRE DONIZETE,EMBUGUACU,CIPO-GUACU,,Google,10191,-23.883288,-46.7786479,,RUA PADRE DONIZETE,0.6951343365910889
195,450,RUA SAO BENEDITO,EMBUGUACU,CIPO-GUACU,,Google,10192,-23.812007,-46.8152575,,RUA SAO BENEDITO,6.447358250276512
196,449,AVENIDA CENTRAL,EMBUGUACU,CIPO-GUACU,,Google,10193,-23.8309593,-46.8157739,,AVENIDA CENTRAL,5.736042650495845
197,101,RUA ENRIQUE AMORIM,SAO PAULO,PARELHEIROS,,MapBox,10194,-23.8668952,-46.7534995,0.74,RUA ENRIQUE AMORIM,0.0236396552909142
198,2,BENEDITO SCHUNCK,SAO PAULO,MARSILAC,,TomTom,10195,-23.88039,-46.74173,11.9079704285,BENEDITO SCHUNCK,0.0086413450149658
199,S/N,EST ENGENHEIRO MARCILAC,SAO PAULO,MARSILAC,,Google,10196,-23.8712085,-46.7379714,,EST ENGENHEIRO MARCILAC,0.533971034477258
200,7,PASCOAL BELMONT,SAO PAULO,MARSILAC,,Google,10197,-23.9081286,-46.7070178,,PASCOAL BELMONT,0.0278629038028719
201,75,RUA FILOMENA BELMONT,SAO PAULO,MARSILAC,,MapBox,10198,-23.908146,-46.706876,0.795556,RUA FILOMENA BELMONT,0.0367447148924431
202,1693,ESTRADA GRANJA SAIKI,SAO PAULO,PARELHEIROS,,Google,10199,-23.7008162,-46.6301631,,ESTRADA GRANJA SAIKI,19.84513162686037
203,43,ARUEIRA,SAO PAULO,PARELHEIROS,,TomTom,10200,-23.85859,-46.71367,9.5448856354,ARUEIRA,0.160495064186064
204,1,BEIJAFLOR,SAO PAULO,PARELHEIROS,,Google,10201,-23.8614856,-46.7126122,,BEIJAFLOR,0.2097777726275677
205,SN,RUA JANE VANINE CAPOZI,SAO PAULO,PARELHEIROS,,OpenRouteService,10202,-23.870566,-46.67688,0.8,RUA JANE VANINE CAPOZI,0.3243382482901083
206,        45,JANE VANINE CAPOZI,SAO PAULO,PARELHEIROS,,MapBox,10203,-23.870172,-46.677333,0.795556,JANE VANINE CAPOZI,0.2249932706145188
207,400,ESTRADA DONA BARRINHA,SAO LOURENCO DONA SERRA,SAO LOURENCO DA SERRA,,TomTom,10204,-23.86047,-46.93976,12.9713935852,ESTRADA DONA BARRINHA,6.556130183802549
208,450,ESTRADA MUNICIPAL BEASILIO VIEIRA,EMBUGUACU,EMBU-GUACU,,TomTom,10205,-23.83627,-46.86303,12.1714582443,ESTRADA MUNICIPAL BEASILIO VIEIRA,0.267916524862613
209,633,ESTRADA BALTHAZAR MANOEL,ITAPECERICA DONA SERRA,ITAPECERICA DA SERRA,,Google,10206,-23.7594282,-46.9062487,,ESTRADA BALTHAZAR MANOEL,0.1296512568306858
210,KM293,ROD REGIS BITTENCOURT,ITAPECERICA DONA SERRA,ITAPECERICA DA SERRA,,TomTom,10207,-23.73274,-46.89496,12.4537134171,ROD REGIS BITTENCOURT,1.7965355345213505
211,7399,ESTRADA JOAQUIM CARDOSO FILHO,ITAPECERICA DONA SERRA,ITAPECERICA DA SERRA,,TomTom,10208,-23.74939,-46.89688,16.0193157196,ESTRADA JOAQUIM CARDOSO FILHO,0.2471983952931085
212,245,RUA CLEMENTINO PEREIRA RODRIGUES,ITAPECERICA DONA SERRA,ITAPECERICA DA SERRA,,TomTom,10209,-23.72795,-46.85997,15.8337631226,RUA CLEMENTINO PEREIRA RODRIGUES,0.0634245841582211
213,398,ESTRADA DONA PONTE ALTA,EMBUGUACU,EMBU-GUACU,,Google,10210,-23.8843364,-46.7429681,,ESTRADA DONA PONTE ALTA,11.301342707801997
214,121,ESTRADA BRASILIO VIEIRA,EMBUGUACU,EMBU-GUACU,,TomTom,10211,-23.83627,-46.86303,10.0993690491,ESTRADA BRASILIO VIEIRA,1.693588077680522
215,1450,ESTRADA DONA PAULISTINHA,EMBUGUACU,EMBU-GUACU,,MapBox,10212,-23.851423,-46.8416122,0.614339,ESTRADA DONA PAULISTINHA,0.007337880800311
216,203,RUA ANGEL PARRA COLMENERO,EMBUGUACU,EMBU-GUACU,,Google,10213,-23.8259638,-46.8303288,,RUA ANGEL PARRA COLMENERO,0.0102961017982999
217,2071,ESTRADA ANTONIO GERASSI,EMBUGUACU,EMBU-GUACU,,TomTom,10214,-23.80881,-46.84638,10.3271989822,ESTRADA ANTONIO GERASSI,0.4303943438273746
218,28,RUA OLIVIO MOREIRA,EMBUGUACU,EMBU-GUACU,,TomTom,10215,-23.80768,-46.8316,10.8844327927,RUA OLIVIO MOREIRA,0.0450189530255407
219,75,RUA FILARINA ALVES DE OLIVEIRA,EMBUGUACU,EMBU-GUACU,,Google,10216,-23.8667373,-46.7899074,,RUA FILARINA ALVES DE OLIVEIRA,3.792390391092496
220,140,RUA SAO WLADIMIR,EMBUGUACU,EMBU-GUACU,,Google,10217,-23.8490033,-46.820469,,RUA SAO WLADIMIR,0.1251078103347999
221,50,RUA SOLDADO PACIFICO CARVALHO MACHADO,EMBUGUACU,EMBU-GUACU,,Google,10218,-23.8487415,-46.8194191,,RUA SOLDADO PACIFICO CARVALHO MACHADO,0.0243688681355551
222,120,RUA EGAS DOS SANTOS,EMBUGUACU,EMBU-GUACU,,Google,10219,-23.8332977,-46.8225963,,RUA EGAS DOS SANTOS,0.0251859306060969
223,148,RUA INACIO MANOEL DOMINGUES,EMBUGUACU,EMBU-GUACU,,Google,10220,-23.8353565,-46.81917319999999,,RUA INACIO MANOEL DOMINGUES,0.0634646123675518
224,850,RUA JOAO RIBEIRO CRAVO ROXO,EMBUGUACU,EMBU-GUACU,,Google,10221,-23.8326471,-46.8181213,,RUA JOAO RIBEIRO CRAVO ROXO,0.2693414016255342
225,570,RUA BENEDITO FERNANDES,EMBUGUACU,EMBU-GUACU,,TomTom,10222,-23.82833,-46.81836,11.9268712997,RUA BENEDITO FERNANDES,0.1646452366580682
226,220,ARLETE APARECIDA DE MORAES LOPES,EMBUGUACU,EMBU-GUACU,,TomTom,10223,-23.82705,-46.81757,10.7901382446,ARLETE APARECIDA DE MORAES LOPES,0.0082068257399655
227,691,SALVINO ANTONIO,EMBUGUACU,EMBU-GUACU,,Google,10224,-23.7801519,-46.8000085,,SALVINO ANTONIO,5.93054598967387
228,20,RUA CELESTINO APPA,EMBUGUACU,EMBU-GUACU,,TomTom,10225,-23.8368,-46.81133,11.9268712997,RUA CELESTINO APPA,0.0613597762626652
229,45,RUA DAVID FARAH,EMBUGUACU,EMBU-GUACU,,Google,10226,-23.8348453,-46.8103685,,RUA DAVID FARAH,0.0181698544780767
230,33,RUA PRINCESA ISABEL,EMBUGUACU,EMBU-GUACU,,TomTom,10227,-23.8337,-46.81334,12.0666389465,RUA PRINCESA ISABEL,0.1609798761302505
231,100,RUA PRINCESA ISABEL,EMBUGUACU,EMBU-GUACU,,TomTom,10228,-23.83323,-46.8127,11.9268712997,RUA PRINCESA ISABEL,0.0803962689749375
232,182,TIRADENTES,EMBUGUACU,EMBU-GUACU,,TomTom,10229,-23.83231,-46.81322,7.3547296524,TIRADENTES,0.0632498181397592
233,74,RUA CLOTILDE LOURO,EMBUGUACU,EMBU-GUACU,,MapBox,10230,-23.826699,-46.816327,0.677831,RUA CLOTILDE LOURO,0.0856619888055168
234,500,ESTRADA CECILIA FREIBERGE MAIER,EMBUGUACU,EMBU-GUACU,,Google,10231,-23.8309593,-46.8157739,,ESTRADA CECILIA FREIBERGE MAIER,0.1615820970784425
235,115,RUA CHYOMATSU OTANI,EMBUGUACU,EMBU-GUACU,,Google,10232,-23.848934,-46.818689,,RUA CHYOMATSU OTANI,2.1258364298966472
236,120,ESTRADA LUZ DONA VIDA,EMBUGUACU,EMBU-GUACU,,Google,10233,-23.918639,-46.8225973,,ESTRADA LUZ DONA VIDA,9.83728524428521
237,1000,CORONEL LUIZ TENORIO DE BRITO,EMBUGUACU,EMBU-GUACU,,TomTom,10234,-23.82914,-46.81239,16.0187339783,CORONEL LUIZ TENORIO DE BRITO,0.6732134990672595
238,1000,AVENIDA CORONEL LUIZ TENORIO BRITO,EMBUGUACU,EMBU-GUACU,,MapBox,10235,-23.8286338,-46.8131244,0.530741,AVENIDA CORONEL LUIZ TENORIO BRITO,0.5809717130645851
239,501,RUA ALEXANDRE RODRIGUES NOGUEIRA,EMBUGUACU,EMBU-GUACU,,MapBox,10236,-23.83634,-46.813625,0.693704,RUA ALEXANDRE RODRIGUES NOGUEIRA,0.6989292512782604
240,60,RUA SANTIAGO PASCHOAL,EMBUGUACU,EMBU-GUACU,,TomTom,10237,-23.80073,-46.82105,9.051358223,RUA SANTIAGO PASCHOAL,3.3531741527370214
241,91,RUA SEBASTIAO P DE ANDRADE,EMBUGUACU,EMBU-GUACU,,Google,10238,-23.8423116,-46.7949141,,RUA SEBASTIAO P DE ANDRADE,0.2491059583731902
242,468,CARLOS SGARBI,EMBUGUACU,EMBU-GUACU,,TomTom,10239,-23.83239,-46.80776,9.0175590515,CARLOS SGARBI,0.0288401075376889
243,1900,ESTRADA DOUTOR ANDRE STUCCHI,EMBUGUACU,EMBU-GUACU,,MapBox,10240,-23.8132308,-46.8284949,0.467778,ESTRADA DOUTOR ANDRE STUCCHI,0.8862035896842114
244,90,RUA CAMINHO CELIO JOSE PAULO,EMBUGUACU,EMBU-GUACU,,Google,10241,-23.850705,-46.8148282,,RUA CAMINHO CELIO JOSE PAULO,4.470016665601032
245,300,RUA DAS GOIABEIRAS,EMBUGUACU,EMBU-GUACU,,TomTom,10242,-23.80783,-46.81895,11.9268712997,RUA DAS GOIABEIRAS,0.1743246912843029
246,315,RUA JOAO ANTONIO OLIVEIRA,EMBUGUACU,EMBU-GUACU,,Google,10243,-23.8090132,-46.8188894,,RUA JOAO ANTONIO OLIVEIRA,0.0318243969994113
247,3470,RODOVIA JOSE SIMOES LOURO JUNIOR,EMBUGUACU,EMBU-GUACU,,Google,10244,-23.7704576,-46.794549,,RODOVIA JOSE SIMOES LOURO JUNIOR,4.060160015306045
248,9250,EST ABIAS DONA SILVA,ITAPECERICA DONA SERRA,ITAPECERICA DA SERRA,,Google,10245,-23.7933264,-46.87245619999999,,EST ABIAS DONA SILVA,2.281253373465924
249,3003,EST ABIAS DONA SILVA,ITAPECERICA DONA SERRA,ITAPECERICA DA SERRA,,Google,10246,-23.7784036,-46.8578737,,EST ABIAS DONA SILVA,1.0567287244666987
250,S/N,PRAÇA GIUSEPPE CORSINI,ITAPECERICA DONA SERRA,ITAPECERICA DA SERRA,,TomTom,10247,-23.75695,-46.84395,13.8356351852,PRAÇA GIUSEPPE CORSINI,0.2466572996989266
251,197,ESTRADA PREFEITO BENTO ROGER DOMINGUES,ITAPECERICA DONA SERRA,ITAPECERICA DA SERRA,,Google,10248,-23.7590353,-46.8416784,,ESTRADA PREFEITO BENTO ROGER DOMINGUES,0.0462151178078035
252,502,EST JOAQUIM CARDOSO FILHO,ITAPECERICA DONA SERRA,ITAPECERICA DA SERRA,,MapBox,10249,-23.7325102,-46.857528946432,0.474444,EST JOAQUIM CARDOSO FILHO,0.1211717808969007
253,400,EST JOAQUIM CARDOSO FILHO,ITAPECERICA DONA SERRA,ITAPECERICA DA SERRA,,MapBox,10250,-23.7325102,-46.857528946432,0.474444,EST JOAQUIM CARDOSO FILHO,0.0596980153459821
254,165,AVENIDA CONSTANTINOPLA,ITAPECERICA DONA SERRA,ITAPECERICA DA SERRA,,TomTom,10251,-23.72969,-46.85765,11.557847023,AVENIDA CONSTANTINOPLA,0.029278188976953
255,64,RUA ITAMARITA,ITAPECERICA DONA SERRA,ITAPECERICA DA SERRA,,Google,10252,-23.724194,-46.85726,,RUA ITAMARITA,0.0205809274463903
256,10,AVENIDA DELFIM VERDE,ITAPECERICA DONA SERRA,ITAPECERICA DA SERRA,,Google,10253,-23.724261,-46.8519105,,AVENIDA DELFIM VERDE,0.0307571593627689
257,99,RUA FELIPE MENDES RODRIGUES,ITAPECERICA DONA SERRA,ITAPECERICA DA SERRA,,Google,10254,-23.7568471,-46.8108542,,RUA FELIPE MENDES RODRIGUES,0.5339442161063676
258,330,RUA CRISPIM RODRIGUES DE ANDRADE,ITAPECERICA DONA SERRA,ITAPECERICA DA SERRA,,MapBox,10255,-23.758786,-46.812159,0.643199,RUA CRISPIM RODRIGUES DE ANDRADE,0.0467143686584481
259,556,RUA EMILIA JESUS,EMBUGUACU,EMBU-GUACU,,TomTom,10256,-23.77679,-46.80516,10.0983419418,RUA EMILIA JESUS,0.1707374724751028
260,2,RUA SAO DANIEL,EMBUGUACU,EMBU-GUACU,,Google,10257,-23.7778478,-46.8036714,,RUA SAO DANIEL,0.1390033110662031
261,2,RUA CASTANHAL,ITAPECERICA DONA SERRA,ITAPECERICA DA SERRA,,Google,10258,-23.7607196,-46.80750380000001,,RUA CASTANHAL,0.027737387520827
262,46,RUA CURUCA,ITAPECERICA DONA SERRA,ITAPECERICA DA SERRA,,Google,10259,-23.7586839,-46.8072946,,RUA CURUCA,0.0359524124149206
263,164,RUA GENILSON MAGALHAES,ITAPECERICA DONA SERRA,ITAPECERICA DA SERRA,,Google,10260,-23.7572529,-46.80439399999999,,RUA GENILSON MAGALHAES,0.0173786117425499
264,175,RUA JURUA,ITAPECERICA DONA SERRA,ITAPECERICA DA SERRA,,TomTom,10261,-23.75782,-46.80021,11.6932907104,RUA JURUA,0.1797930441799196
265,400,RUA JURUA,ITAPECERICA DONA SERRA,ITAPECERICA DA SERRA,,Google,10262,-23.7585566,-46.8019775,,RUA JURUA,0.055624109744272
266,46,ROD JOSE SIMOES LOURO JR,EMBUGUACU,EMBU-GUACU,,TomTom,10263,-23.79746,-46.81618,16.4734230042,ROD JOSE SIMOES LOURO JR,3.556394652676141
267,       254,JURUA,ITAPECERICA DONA SERRA,ITAPECERICA DA SERRA,,Google,10264,-23.7576783,-46.7999077,,JURUA,0.0244022638789846
268,1875,RUA SOLIMOES,ITAPECERICA DONA SERRA,ITAPECERICA DA SERRA,,TomTom,10265,-23.75531,-46.80335,9.9423341751,RUA SOLIMOES,0.5157925404253613
269,6,RUA PEDRA BRANCA,ITAPECERICA DONA SERRA,ITAPECERICA DA SERRA,,Google,10266,-23.7629532,-46.7935111,,RUA PEDRA BRANCA,0.05044448873996
270,56,RUA MARINGA,ITAPECERICA DONA SERRA,ITAPECERICA DA SERRA,,Google,10267,-23.7571819,-46.7951455,,RUA MARINGA,0.1091859325441945
271,16,RUA MARINGA,ITAPECERICA DONA SERRA,ITAPECERICA DA SERRA,,Google,10268,-23.7245342,-46.8817548,,RUA MARINGA,9.462751978909044
272,263,RUA PRESIDENTE COSTA E SILVA,ITAPECERICA DONA SERRA,ITAPECERICA DA SERRA,,Google,10269,-23.7454731,-46.8069542,,RUA PRESIDENTE COSTA E SILVA,0.0184400616794515
273,118,RUA PRESIDENTE EURICO DUTRA,ITAPECERICA DONA SERRA,ITAPECERICA DA SERRA,,Google,10270,-23.7454517,-46.8053561,,RUA PRESIDENTE EURICO DUTRA,0.0230032686264814
274,370,CAMBUCI,ITAPECERICA DONA SERRA,ITAPECERICA DA SERRA,,Google,10271,-23.7420011,-46.8035374,,CAMBUCI,0.2352561514585542
275,256,RUA ANTONIO QUERUBIM,ITAPECERICA DONA SERRA,ITAPECERICA DA SERRA,,Google,10272,-23.7464574,-46.8013374,,RUA ANTONIO QUERUBIM,0.0792692605932756
276,        23,WENCESLAU PAULINO DONA SILVA,ITAPECERICA DONA SERRA,ITAPECERICA DA SERRA,,Google,10273,-23.7467285,-46.7986995,,WENCESLAU PAULINO DONA SILVA,0.2547737530587485
277,301,RUA ANTONIO QUERUBIM,ITAPECERICA DONA SERRA,ITAPECERICA DA SERRA,,TomTom,10274,-23.74701,-46.80104,13.8773012161,RUA ANTONIO QUERUBIM,0.0267758056811142
278,       750,ABIAS DONA SILVA,ITAPECERICA DONA SERRA,ITAPECERICA DA SERRA,,Google,10275,-23.7570556,-46.83457929999999,,ABIAS DONA SILVA,3.7023540878461594
279,150,RUA MANDAGUARI,ITAPECERICA DONA SERRA,ITAPECERICA DA SERRA,,TomTom,10276,-23.75659,-46.79282,11.6932907104,RUA MANDAGUARI,0.0454252438437712
280,150,MANDAGUARI,ITAPECERICA DONA SERRA,ITAPECERICA DA SERRA,,TomTom,10277,-23.75659,-46.79282,9.2515802383,MANDAGUARI,0.0307189926440477
281,333,RUA WENCESLAU PAULINO DONA SILVA,ITAPECERICA DONA SERRA,ITAPECERICA DA SERRA,,Google,10278,-23.7471167,-46.7989518,,RUA WENCESLAU PAULINO DONA SILVA,0.0860001946840097
282,       596,SANTOS DUMONT,ITAPECERICA DONA SERRA,ITAPECERICA DA SERRA,,Google,10279,-23.7459482,-46.79879440000001,,SANTOS DUMONT,0.0249610024068209
283,9,RUA GUIMARAES ROSA,ITAPECERICA DONA SERRA,ITAPECERICA DA SERRA,,Google,10280,-23.7484141,-46.7951919,,RUA GUIMARAES ROSA,0.2414859891842906
284,11,RUA MONTEIRO LOBATO,ITAPECERICA DONA SERRA,ITAPECERICA DA SERRA,,Google,10281,-23.7461782,-46.7980606,,RUA MONTEIRO LOBATO,0.0025779466146779
285,14,CASTRO ALVES,ITAPECERICA DONA SERRA,ITAPECERICA DA SERRA,,Google,10282,-23.7441632,-46.7976964,,CASTRO ALVES,0.0072315037653627
286,475,RUA MONTEIRO LOBATO,ITAPECERICA DONA SERRA,ITAPECERICA DA SERRA,,Google,10283,-23.7463653,-46.7939062,,RUA MONTEIRO LOBATO,0.0161852088099677
287,12898,ROD JOSE SIMOES LOURO JUNIOR,ITAPECERICA DONA SERRA,ITAPECERICA DA SERRA,,Google,10284,-23.7459663,-46.7929203,,ROD JOSE SIMOES LOURO JUNIOR,0.0213170734372029
288,10,RUA CESARIO VERDE,ITAPECERICA DONA SERRA,ITAPECERICA DA SERRA,,TomTom,10285,-23.7439,-46.7959,13.7165613174,RUA CESARIO VERDE,0.0271424880823558
289,70,RUA CARLOS DRUMOND DE ANDRADE,ITAPECERICA DONA SERRA,ITAPECERICA DA SERRA,,Google,10286,-23.7431928,-46.7943581,,RUA CARLOS DRUMOND DE ANDRADE,0.1247519724167737
290,10022,PLINIO DIAS,SAO PAULO,JARDIM ANGELA,,Google,10287,-23.7374351,-46.7959792,,PLINIO DIAS,0.1340647941716981
291,SN,HUMBERTO MARCAL,SAO PAULO,JARDIM ANGELA,,MapBox,10288,-23.7385593,-46.7934913,0.724127,HUMBERTO MARCAL,0.0208447308850618
292,110,PLINIO DIAS,ITAPECERICA DONA SERRA,ITAPECERICA DA SERRA,,Google,10289,-23.7362356,-46.795485,,PLINIO DIAS,0.0106959699900813
293,S/N,AVENIDA JOSE ESTIMA FILHO,SAO PAULO,JARDIM ANGELA,,MapBox,10290,-23.7289833,-46.7912267,0.717778,AVENIDA JOSE ESTIMA FILHO,0.3011235897084589
294,01,RUA NOVO ALVORECER,ITAPECERICA DONA SERRA,ITAPECERICA DA SERRA,,Google,10291,-23.7201675,-46.8973661,,RUA NOVO ALVORECER,0.0315512546576277
295,64,RUA CACHOEIRA,COTIA,COTIA,,OpenRouteService,10292,-23.650072,-46.956258,0.8,RUA CACHOEIRA,5.596051517736457
296,4518,ESTRADA MUNICIPAL CAPUTERA,COTIA,COTIA,,Google,10293,-23.6889313,-46.9248094,,ESTRADA MUNICIPAL CAPUTERA,0.8652505259953951
297,95,RUA PIRACEMA,ITAPECERICA DONA SERRA,ITAPECERICA DA SERRA,,MapBox,10294,-23.719145,-46.867284,0.582593,RUA PIRACEMA,0.0280103860966441
298,        58,JACOB HENGLES,ITAPECERICA DONA SERRA,ITAPECERICA DA SERRA,,MapBox,10295,-23.717798,-46.867211,0.582593,JACOB HENGLES,0.0259704090835339
299,1553,EST REPRESA DONA,ITAPECERICA DONA SERRA,ITAPECERICA DA SERRA,,Google,10296,-23.7239668,-46.8606838,,EST REPRESA DONA,0.0310538460960541
300,160,RUA SILVIO FERREIRA DOMINGUES,ITAPECERICA DONA SERRA,ITAPECERICA DA SERRA,,TomTom,10297,-23.72386,-46.85879,16.0193157196,RUA SILVIO FERREIRA DOMINGUES,0.054711796739449
301,202,RUA ALMERINDO PEREIRA BUENO,ITAPECERICA DONA SERRA,ITAPECERICA DA SERRA,,TomTom,10298,-23.72057,-46.85808,16.1218891144,RUA ALMERINDO PEREIRA BUENO,0.0428312424781887
302,131,RUA HIKARI KURACHI,ITAPECERICA DONA SERRA,ITAPECERICA DA SERRA,,TomTom,10299,-23.71163,-46.86402,13.7165613174,RUA HIKARI KURACHI,0.1260842550017111
303,867,RUA JOSE ANTONIO DE MORAES,ITAPECERICA DONA SERRA,ITAPECERICA DA SERRA,,Google,10300,-23.7085443,-46.8644797,,RUA JOSE ANTONIO DE MORAES,0.2580707851605746
304,1455,EDUARDO ROBERTO DAHER,ITAPECERICA DONA SERRA,ITAPECERICA DA SERRA,,Google,10301,-23.7138532,-46.8634967,,EDUARDO ROBERTO DAHER,0.1815249623267602
305,42,AVENIDA GUATEMALA,ITAPECERICA DONA SERRA,ITAPECERICA DA SERRA,,Google,10302,-23.7106246,-46.8598358,,AVENIDA GUATEMALA,0.0414832507324169
306,222,AVENIDA ARGENTINA,ITAPECERICA DONA SERRA,ITAPECERICA DA SERRA,,TomTom,10303,-23.70743,-46.85891,11.6932907104,AVENIDA ARGENTINA,0.0355133971157563
307,2100,RUA PENSILVANIA,ITAPECERICA DONA SERRA,ITAPECERICA DA SERRA,,Google,10304,-23.7043737,-46.8605242,,RUA PENSILVANIA,0.0605138371708627
308,131,RUA JAPAO,ITAPECERICA DONA SERRA,ITAPECERICA DA SERRA,,TomTom,10305,-23.7051,-46.85822,11.6932907104,RUA JAPAO,0.010864189312933
309,1121,EST RESSACA,ITAPECERICA DONA SERRA,ITAPECERICA DA SERRA,,Google,10306,-23.685483,-46.8834758,,EST RESSACA,0.9300756009093166
310,1081,EST RESSACA,ITAPECERICA DONA SERRA,ITAPECERICA DA SERRA,,Google,10307,-23.6739312,-46.8944886,,EST RESSACA,1.2395443475719266
311,19,RUA TAQUARAL,ITAPECERICA DONA SERRA,ITAPECERICA DA SERRA,,Google,10308,-23.6890745,-46.8607514,,RUA TAQUARAL,0.0925149996663954
312,100,RUA BOROROS,EMBU DAS ARTES,EMBU DAS ARTES,,Google,10309,-23.6803735,-46.8649453,,RUA BOROROS,0.0053268002811134
313,40,RUA TABARANA,EMBU DAS ARTES,EMBU DAS ARTES,,Google,10310,-23.6814175,-46.8634967,,RUA TABARANA,0.0498126531480978
314,2000,ESTRADA MARIA IMACULADA,EMBU DAS ARTES,EMBU DAS ARTES,,TomTom,10311,-23.67839,-46.86608,14.7091732025,ESTRADA MARIA IMACULADA,0.0450316792625925
315,270,RUA JULIETA JACYRA GALLO,EMBU DAS ARTES,EMBU DAS ARTES,,Google,10312,-23.6630495,-46.8655984,,RUA JULIETA JACYRA GALLO,0.1891017405165027
316,55,RUA MARQUES DE POMBAL,EMBU DAS ARTES,EMBU DAS ARTES,,Google,10313,-23.6618685,-46.8624801,,RUA MARQUES DE POMBAL,0.0809424281542467
317,1000,ESTRADA DOS ORQUIDOFILOS,EMBU DAS ARTES,EMBU DAS ARTES,,TomTom,10314,-23.66188,-46.8594,16.0661945343,ESTRADA DOS ORQUIDOFILOS,0.0194021132334602
318,456,RUA DOS ANDES,COTIA,COTIA,,Google,10315,-23.6295214,-46.909234,,RUA DOS ANDES,0.020341447723717
319,73,ESTRADA VELHA DE COTIA,EMBU DAS ARTES,EMBU DAS ARTES,,TomTom,10316,-23.64469,-46.89788,18.1902885437,ESTRADA VELHA DE COTIA,0.0395236284974474
320,927,AVENIDA 7 DE SETEMBRO,EMBU DAS ARTES,EMBU DAS ARTES,,Google,10317,-23.6471923,-46.88915,,AVENIDA 7 DE SETEMBRO,0.4695012048901514
321,2421,RUA MARIA FERRAZ DO PRADO,EMBU DAS ARTES,EMBU DAS ARTES,,Google,10318,-23.6429325,-46.8993628,,RUA MARIA FERRAZ DO PRADO,0.0969146890344795
322,80,RUA SAO FRANCISCO DE ASSIS,COTIA,COTIA,,Google,10319,-23.6128183,-46.9216569,,RUA SAO FRANCISCO DE ASSIS,0.0199617645921311
323,342,RUA FLAMINGO,COTIA,COTIA,,OpenRouteService,10320,-23.614009,-46.917988,0.8,RUA FLAMINGO,0.1427402665038911
324,S/N,RUA CAIAPO,COTIA,COTIA,,OpenRouteService,10321,-23.61079,-46.912712,0.8,RUA CAIAPO,0.0081950231207397
325,S/N,AVENIDA BENEDITO ISAAC PIRES,COTIA,COTIA,,Google,10322,-23.615709,-46.9006444,,AVENIDA BENEDITO ISAAC PIRES,0.8795924331298073
326,67,RUA PROFESSORA IZAURA BAYERLEIN,COTIA,COTIA,,TomTom,10323,-23.60692,-46.92362,13.368273735,RUA PROFESSORA IZAURA BAYERLEIN,0.0445829985037989
327,S/N,RUA JOAQUIM DE ARAUJO NOVAES,COTIA,COTIA,,TomTom,10324,-23.60594,-46.92286,15.8238229752,RUA JOAQUIM DE ARAUJO NOVAES,0.0866295100706647
328,206,AVENIDA NOSSA SENHORA FATIMA DE,COTIA,COTIA,,Google,10325,-23.6077917,-46.9247514,,AVENIDA NOSSA SENHORA FATIMA DE,0.3959931424391871
329,S/N,AVENIDA PROFESSOR MANOEL JOSE PEDROSO,COTIA,COTIA,,MapBox,10326,-23.6068653,-46.918827,0.717778,AVENIDA PROFESSOR MANOEL JOSE PEDROSO,0.1151764646295486
330,20,RUA JOAQUIM JUSTO NOVAES,COTIA,COTIA,,TomTom,10327,-23.60593,-46.92049,13.5478563309,RUA JOAQUIM JUSTO NOVAES,0.0195879263043543
331,93,RUA CATARINA ETELVINA PEDROSO,COTIA,COTIA,,TomTom,10328,-23.60419,-46.92062,14.226934433,RUA CATARINA ETELVINA PEDROSO,0.044837146219113
332,100,EST VICTOR SÃO,COTIA,COTIA,,Google,10329,-23.6095403,-46.9180365,,EST VICTOR SÃO,0.0446841432287386
333,30,RUA TOPAZIO,COTIA,COTIA,,MapBox,10330,-23.608503,-46.916387,0.777037,RUA TOPAZIO,0.0088942300476819
334,138,RUA TOPAZIO,COTIA,COTIA,,MapBox,10331,-23.606961,-46.914988,0.777037,RUA TOPAZIO,0.1174598651385808
335,32,RUA JANETE,COTIA,COTIA,,Google,10332,-23.5990351,-46.9181692,,RUA JANETE,0.0156501302315851
336,597,ESTRADA VELHA DONA ESTACAO,COTIA,COTIA,,Google,10333,-23.5997426,-46.9171836,,ESTRADA VELHA DONA ESTACAO,0.179099012851785
337,1,RUA CALOGERO MIRIZOLA,COTIA,COTIA,,Google,10334,-23.5980846,-46.9182593,,RUA CALOGERO MIRIZOLA,0.0561133480482413
338,10,RUA NATAL,COTIA,COTIA,,TomTom,10335,-23.59796,-46.91638,9.9009103775,RUA NATAL,0.0106830469820721
339,240,RUA TOPAZIO,COTIA,COTIA,,TomTom,10336,-23.60707,-46.91502,9.9009103775,RUA TOPAZIO,0.0122988595698036
340,256,RUA TOPAZIO,COTIA,COTIA,,TomTom,10337,-23.60694,-46.91485,9.9009103775,RUA TOPAZIO,0.0190801321906604
341,149,RUA MARIA DONA GLORIA SILVA,COTIA,COTIA,,TomTom,10338,-23.60404,-46.91406,14.1357746124,RUA MARIA DONA GLORIA SILVA,0.0101094758798543
342,1894,AVENIDA PROFESSOR MANOEL JOSE PEDROSO,COTIA,COTIA,,TomTom,10339,-23.60444,-46.91123,15.8126335144,AVENIDA PROFESSOR MANOEL JOSE PEDROSO,0.0409523196025414
343,1936,AVENIDA PROFESSOR MANOEL JOSE PEDROSO,COTIA,COTIA,,Google,10340,-23.6046458,-46.9108275,,AVENIDA PROFESSOR MANOEL JOSE PEDROSO,0.040078745997581
344,17,RUA VESPER,COTIA,COTIA,,Google,10341,-23.604742,-46.9108235,,RUA VESPER,0.0406239497359492
345,501,RUA AZULAO,COTIA,COTIA,,OpenRouteService,10342,-23.599986,-46.913654,0.8,RUA AZULAO,0.083371953335746
346,142,RUA PINTASSILGO,COTIA,COTIA,,OpenRouteService,10343,-23.597312,-46.913742,0.8,RUA PINTASSILGO,0.0158275165480418
347,865,AZULAO,COTIA,COTIA,,MapBox,10344,-23.598921,-46.9121025,0.627778,AZULAO,0.1659320729250114
348,150,RUA URUPES,COTIA,COTIA,,TomTom,10345,-23.59558,-46.91504,9.7862281799,RUA URUPES,0.0141939039165326
349,417,RUA URUPES,COTIA,COTIA,,Google,10346,-23.5963652,-46.9128717,,RUA URUPES,0.0520488110698136
350,200,RUA FRATERNIDADE DONA,COTIA,COTIA,,Google,10347,-23.5973147,-46.9101094,,RUA FRATERNIDADE DONA,0.0612888843232937
351,151,RUA AMAPA,COTIA,COTIA,,TomTom,10348,-23.59955,-46.90786,9.9009103775,RUA AMAPA,0.0063531026232489
352,92,RUA POTENGI,COTIA,COTIA,,OpenRouteService,10349,-23.595507,-46.906823,0.8,RUA POTENGI,0.0792998191588404
353,700,AVENIDA NICODEMOS DE CARVALHO,COTIA,COTIA,,TomTom,10350,-23.61829,-46.90424,14.0690345764,AVENIDA NICODEMOS DE CARVALHO,0.2792043493536677
354,236,RUA HARMONIA DONA,COTIA,COTIA,,Google,10351,-23.6057148,-46.9016516,,RUA HARMONIA DONA,0.1789236379193446
355,396,RUA ONZE,COTIA,COTIA,,Google,10352,-23.6059252,-46.926502,,RUA ONZE,2.6466641038114167
356,323,RONDONIA,COTIA,COTIA,,TomTom,10353,-23.59964,-46.90607,7.4592003822,RONDONIA,0.0124916506317757
357,611,EST CAIAPIA,COTIA,COTIA,,Google,10354,-23.596946,-46.904065,,EST CAIAPIA,0.0370142864487375
358,1,RUA ITU,COTIA,COTIA,,TomTom,10355,-23.6074,-46.89704,9.7862281799,RUA ITU,0.0138116096915671
359,97,AVENIDA ELDORADO,COTIA,COTIA,,TomTom,10356,-23.60132,-46.89792,9.9009103775,AVENIDA ELDORADO,0.033441908416459
360,220,RUA BENEDITO DIAS DOS SANTOS,COTIA,COTIA,,TomTom,10357,-23.60223,-46.89631,16.1390209198,RUA BENEDITO DIAS DOS SANTOS,0.0130317207153698
361,211,RUA BELEM,COTIA,COTIA,,MapBox,10358,-23.601491,-46.894001,0.777037,RUA BELEM,0.1336759527733191
362,445,RUA RECIFE,COTIA,COTIA,,TomTom,10359,-23.60319,-46.89209,9.9009103775,RUA RECIFE,0.0177526291032177
363,260,ESTRADA DO CAPUAVA,COTIA,COTIA,,Google,10360,-23.601204,-46.89606389999999,,ESTRADA DO CAPUAVA,0.0802729170997375
364,33,RUA RECIFE,COTIA,COTIA,,TomTom,10361,-23.5996,-46.89254,9.9009103775,RUA RECIFE,0.0129861944004967
365,30,RUA MARTILIANO LEMOS LEITE,COTIA,COTIA,,TomTom,10362,-23.59657,-46.89439,13.3898172379,RUA MARTILIANO LEMOS LEITE,0.0995959934187349
366,530,RUA DOIS,EMBU DAS ARTES,EMBU DAS ARTES,,Google,10363,-23.6498081,-46.8532804,,RUA DOIS,2.417277546496316
367,854,RUA ARLINDO MORAES COSTA,EMBU DAS ARTES,EMBU DAS ARTES,,TomTom,10364,-23.62611,-46.8868,15.122127533,RUA ARLINDO MORAES COSTA,0.0242704087453582
368,1290,JOSE MATHIAS DE CAMARGO,EMBU DAS ARTES,EMBU DAS ARTES,,MapBox,10365,-23.6363021,-46.8802994,0.748889,JOSE MATHIAS DE CAMARGO,0.0058064804739707
369,889,AVENIDA JOAO BATISTA MEDINA,EMBU DAS ARTES,EMBU DAS ARTES,,Google,10366,-23.650378,-46.8589338,,AVENIDA JOAO BATISTA MEDINA,0.2881093550062226
370,888,JOAO BATISTA MEDINA,EMBU DAS ARTES,EMBU DAS ARTES,,TomTom,10367,-23.6488,-46.86169,15.9955806732,JOAO BATISTA MEDINA,0.0485268204918579
371,35,PASSAGEM DAS PAINEIRAS,EMBU DAS ARTES,EMBU DAS ARTES,,TomTom,10368,-23.62935,-46.86668,13.8969087601,PASSAGEM DAS PAINEIRAS,0.0165382870303318
372,35,PASSAGEM DAS PAINEIRAS,EMBU DAS ARTES,EMBU DAS ARTES,,TomTom,10369,-23.62935,-46.86668,13.8969087601,PASSAGEM DAS PAINEIRAS,0.0165382870303318
373,151,RUA MISSISSIPE,COTIA,COTIA,,TomTom,10370,-23.6101,-46.88285,9.0131998062,RUA MISSISSIPE,0.0057591363924404
374,56,RUA TUNDRA,COTIA,COTIA,,TomTom,10371,-23.60167,-46.87571,9.9009103775,RUA TUNDRA,0.0291071409451988
375,200,RUA EURICLIDES FORMIGA,COTIA,COTIA,,MapBox,10372,-23.598932,-46.88038,0.787619,RUA EURICLIDES FORMIGA,0.0295443395333555
376,104,EURICLIDES FORMIGA,COTIA,COTIA,,OpenRouteService,10373,-23.598172,-46.880719,1.0,EURICLIDES FORMIGA,0.1068956032519098
377,70,RUA EURICLIDES FORMIGA,COTIA,COTIA,,MapBox,10374,-23.5982,-46.880386,0.787619,RUA EURICLIDES FORMIGA,0.1620334282129219
378,50,RUA EURICLEDES FORMIGA,COTIA,COTIA,,MapBox,10375,-23.59799,-46.880473,0.787619,RUA EURICLEDES FORMIGA,0.1674949189087716
379,4239,CAPUAVA,COTIA,COTIA,,Google,10376,-23.6174563,-46.8709193,,CAPUAVA,0.087728521212354
380,1080,EST PONTA PORA,EMBU DAS ARTES,EMBU DAS ARTES,,Google,10377,-23.6272369,-46.870177,,EST PONTA PORA,0.2143928932133178
381,877,EST PONTA PORA,EMBU DAS ARTES,EMBU DAS ARTES,,TomTom,10378,-23.62783,-46.87486,16.0661945343,EST PONTA PORA,0.6121012365810063
382,4421,CAPUAVA,COTIA,COTIA,,Google,10379,-23.6160465,-46.8698588,,CAPUAVA,0.0928771247521381
383,176,V DAS MAGNOLIAS,EMBU DAS ARTES,EMBU DAS ARTES,,TomTom,10380,-23.61769,-46.85873,16.1059646606,V DAS MAGNOLIAS,0.0874964191163578
384,450,RUA JOAO VITORELLO,COTIA,COTIA,,Google,10381,-23.598002,-46.872122,,RUA JOAO VITORELLO,0.1597365730321157
385,1287,RUA FRANCISCO MORACCI,COTIA,COTIA,,Google,10382,-23.5964589,-46.8734654,,RUA FRANCISCO MORACCI,0.0642483629746283
386,44,MIGUEL CALMOM,COTIA,COTIA,,TomTom,10383,-23.60307,-46.85834,8.9680318832,MIGUEL CALMOM,0.005504514317536
387,24,BECO DO VINTEM,COTIA,COTIA,,MapBox,10384,-23.5941777,-46.8640277,0.724127,BECO DO VINTEM,0.0262717964686555
388,24,BECO DO VINTEM,COTIA,COTIA,,MapBox,10385,-23.5941777,-46.8640277,0.724127,BECO DO VINTEM,0.0262717964686555
389,24,BECO DO VINTEM,COTIA,COTIA,,MapBox,10386,-23.5941777,-46.8640277,0.724127,BECO DO VINTEM,0.0262717964686555
390,50,BECO DO VINTEM,COTIA,COTIA,,OpenRouteService,10387,-23.594263,-46.863218,0.8,BECO DO VINTEM,0.0431953654165062
391,67,RUA RAUL VALENTIM BUSNELLO,ITAPECERICA DONA SERRA,ITAPECERICA DA SERRA,,TomTom,10388,-23.71952,-46.85766,16.0193157196,RUA RAUL VALENTIM BUSNELLO,0.0350519095988194
392,440,RUA CRISTALINO WEISHAUPT,ITAPECERICA DONA SERRA,ITAPECERICA DA SERRA,,TomTom,10389,-23.71696,-46.85445,13.4660797119,RUA CRISTALINO WEISHAUPT,0.3235428588649061
393,80,RUA CRISTALINO WEISHAUPT,ITAPECERICA DONA SERRA,ITAPECERICA DA SERRA,,Google,10390,-23.7169214,-46.8549204,,RUA CRISTALINO WEISHAUPT,0.0758710838771285
394,136,RUA ITAMAR,ITAPECERICA DONA SERRA,ITAPECERICA DA SERRA,,TomTom,10391,-23.72341,-46.85392,11.6932907104,RUA ITAMAR,0.0079657761907422
395,185,RUA BOA ESPERANCA,ITAPECERICA DONA SERRA,ITAPECERICA DA SERRA,,MapBox,10392,-23.721602,-46.853408,0.607284,RUA BOA ESPERANCA,0.131612095751817
396,1,RUA ITAMAR,ITAPECERICA DONA SERRA,ITAPECERICA DA SERRA,,TomTom,10393,-23.72313,-46.85276,11.6932907104,RUA ITAMAR,0.0461833625772785
397,26,RUA ZORAIDE EVA DAS DORES,ITAPECERICA DONA SERRA,ITAPECERICA DA SERRA,,MapBox,10394,-23.721793,-46.855539,0.643199,RUA ZORAIDE EVA DAS DORES,0.3220288857579755
398,55,RUA ALVARO DE ALMEIDA LEME,ITAPECERICA DONA SERRA,ITAPECERICA DA SERRA,,MapBox,10395,-23.7176027,-46.8546169,0.602795,RUA ALVARO DE ALMEIDA LEME,0.3126053340063066
399,136,RUA VICTOR MANZINI,ITAPECERICA DONA SERRA,ITAPECERICA DA SERRA,,Google,10396,-23.7164463,-46.8512633,,RUA VICTOR MANZINI,0.0275521453762046
400,155,AVENIDA EDUARDO ROBERTO DAHER,ITAPECERICA DONA SERRA,ITAPECERICA DA SERRA,,TomTom,10397,-23.71583,-46.85127,15.8337631226,AVENIDA EDUARDO ROBERTO DAHER,0.0434716204793827
401,94,AVENIDA EDUARDO ROBERTO DAHER,ITAPECERICA DONA SERRA,ITAPECERICA DA SERRA,,TomTom,10398,-23.71596,-46.85072,15.8337631226,AVENIDA EDUARDO ROBERTO DAHER,0.0351943873462355
402,45,AVENIDA PIAUI,ITAPECERICA DONA SERRA,ITAPECERICA DA SERRA,,Google,10399,-23.7124244,-46.8547872,,AVENIDA PIAUI,0.0316910378073587
403,46,RUA BELGICA,ITAPECERICA DONA SERRA,ITAPECERICA DA SERRA,,TomTom,10400,-23.70924,-46.85694,11.557847023,RUA BELGICA,0.0145020223084118
404,362,RUA ALAGOAS,ITAPECERICA DONA SERRA,ITAPECERICA DA SERRA,,TomTom,10401,-23.71091,-46.85682,11.6932907104,RUA ALAGOAS,0.1389222812764786
405,186,RUA MAJOR MANOEL FRANCISCO DE MORAES,ITAPECERICA DONA SERRA,ITAPECERICA DA SERRA,,Google,10402,-23.715055,-46.85189159999999,,RUA MAJOR MANOEL FRANCISCO DE MORAES,0.0253604619988239
406,196,JOAO SAO,ITAPECERICA DONA SERRA,ITAPECERICA DA SERRA,,TomTom,10403,-23.7145,-46.85031,11.2758436203,JOAO SAO,0.0323272098708271
407,300,RUA PEDRO JOSE ROTGER DOMINGUES,ITAPECERICA DONA SERRA,ITAPECERICA DA SERRA,,Google,10404,-23.711987,-46.849923,,RUA PEDRO JOSE ROTGER DOMINGUES,0.076505513984735
408,2165,AVENIDA GROENLANDIA,ITAPECERICA DONA SERRA,ITAPECERICA DA SERRA,,MapBox,10405,-23.709328,-46.852987,0.582593,AVENIDA GROENLANDIA,0.0748090970014645
409,400,AVENIDA ITAPECIRICANOS DOS,ITAPECERICA DONA SERRA,ITAPECERICA DA SERRA,,Google,10406,-23.7116626,-46.8528809,,AVENIDA ITAPECIRICANOS DOS,0.0349362359475596
410,35,RUA SEBASTIAO PEREIRA DONA SILVA,ITAPECERICA DONA SERRA,ITAPECERICA DA SERRA,,TomTom,10407,-23.74807,-46.90226,14.0651836395,RUA SEBASTIAO PEREIRA DONA SILVA,6.329784518637831
411,48,RUA VIRGILIO BUSNELLO,ITAPECERICA DONA SERRA,ITAPECERICA DA SERRA,,MapBox,10408,-23.7165422,-46.8492209,0.557901,RUA VIRGILIO BUSNELLO,0.0262035648380288
412,206,RUA 13 DE MAIO,ITAPECERICA DONA SERRA,ITAPECERICA DA SERRA,,TomTom,10409,-23.71896,-46.84711,16.3177890778,RUA 13 DE MAIO,0.0603082988582016
413,47,RUA SAO JOAO,ITAPECERICA DONA SERRA,ITAPECERICA DA SERRA,,Google,10410,-23.7154392,-46.8510587,,RUA SAO JOAO,0.4477221021208439
414,185,RUA SAO JOAO,ITAPECERICA DONA SERRA,ITAPECERICA DA SERRA,,Google,10411,-23.7143606,-46.8505287,,RUA SAO JOAO,0.246942392092516
415,158,RUA ITAMARATI,ITAPECERICA DONA SERRA,ITAPECERICA DA SERRA,,TomTom,10412,-23.71236,-46.84737,11.557847023,RUA ITAMARATI,0.1012154396401491
416,       424,CARLOS DOMINGUES TANTICO,ITAPECERICA DONA SERRA,ITAPECERICA DA SERRA,,Google,10413,-23.7088124,-46.8450346,,CARLOS DOMINGUES TANTICO,0.1459005945759239
417,1549,RUA PERSIA,ITAPECERICA DONA SERRA,ITAPECERICA DA SERRA,,TomTom,10414,-23.70707,-46.85731,11.6932907104,RUA PERSIA,0.0370534011559801
418,1130,RUA PERSIA,ITAPECERICA DONA SERRA,ITAPECERICA DA SERRA,,Google,10415,-23.7084902,-46.8577492,,RUA PERSIA,0.1769913715889796
419,1130,RUA PERSIA,ITAPECERICA DONA SERRA,ITAPECERICA DA SERRA,,Google,10416,-23.7084902,-46.8577492,,RUA PERSIA,0.1769913715889796
420,68,RUA CELSO MESQUITA LEITE,ITAPECERICA DONA SERRA,ITAPECERICA DA SERRA,,TomTom,10417,-23.70198,-46.85457,15.8337631226,RUA CELSO MESQUITA LEITE,0.0262857791843995
421,30,RUA CELSO MESQUITA LEITE,ITAPECERICA DONA SERRA,ITAPECERICA DA SERRA,,TomTom,10418,-23.70195,-46.85459,15.8337631226,RUA CELSO MESQUITA LEITE,0.0302304017216459
422,455,AVENIDA PRESIDENTE JANIO DONA SILVA QUADROS,ITAPECERICA DONA SERRA,ITAPECERICA DA SERRA,,Google,10419,-23.7045495,-46.85300729999999,,AVENIDA PRESIDENTE JANIO DONA SILVA QUADROS,0.0723176022111132
423,50,RUA NICOLA FELICE,ITAPECERICA DONA SERRA,ITAPECERICA DA SERRA,,TomTom,10420,-23.70732,-46.8504,13.8773012161,RUA NICOLA FELICE,0.0136287363310358
424,198,RUA SALVADOR,ITAPECERICA DONA SERRA,ITAPECERICA DA SERRA,,TomTom,10421,-23.70241,-46.85229,11.6932907104,RUA SALVADOR,0.0396727179038738
425,103,RUA ANTONIO DE ALBUQUERQUE,ITAPECERICA DONA SERRA,ITAPECERICA DA SERRA,,TomTom,10422,-23.77968,-46.91541,14.3327112198,RUA ANTONIO DE ALBUQUERQUE,10.836103976230852
426,309,EST MACIEL DO,ITAPECERICA DONA SERRA,ITAPECERICA DA SERRA,,TomTom,10423,-23.705,-46.84415,10.8581142426,EST MACIEL DO,1.7100868741817594
427,200,EST MACIEL DO,ITAPECERICA DONA SERRA,ITAPECERICA DA SERRA,,Google,10424,-23.7183369,-46.8481043,,EST MACIEL DO,2.995842163015279
428,660,EST JOAO RODRIGUES DE MORAES,ITAPECERICA DONA SERRA,ITAPECERICA DA SERRA,,TomTom,10425,-23.721,-46.80907,18.1273670197,EST JOAO RODRIGUES DE MORAES,3.2586919081628936
429,101,RUA MARIA APARECIDA PEIXOTO MARINHO BARBOSA,ITAPECERICA DONA SERRA,ITAPECERICA DA SERRA,,TomTom,10426,-23.71656,-46.83982,15.9453239441,RUA MARIA APARECIDA PEIXOTO MARINHO BARBOSA,0.0320342622938569
430,500,ESTRADA JOAO RODRIGUES DE MORAES,ITAPECERICA DONA SERRA,ITAPECERICA DA SERRA,,Google,10427,-23.7196202,-46.82121249999999,,ESTRADA JOAO RODRIGUES DE MORAES,1.4354947725185745
431,21,RUA ASIA,ITAPECERICA DONA SERRA,ITAPECERICA DA SERRA,,Google,10428,-23.7093423,-46.8344795,,RUA ASIA,0.0413573022990415
432,15,RUA OCEANIA,ITAPECERICA DONA SERRA,ITAPECERICA DA SERRA,,Google,10429,-23.6884559,-46.8536805,,RUA OCEANIA,0.2854677355099016
433,49,RUA OCEANIA,ITAPECERICA DONA SERRA,ITAPECERICA DA SERRA,,Google,10430,-23.6883396,-46.8537187,,RUA OCEANIA,0.2520681414056063
434,400,RUA TERRA NOVA,ITAPECERICA DONA SERRA,ITAPECERICA DA SERRA,,TomTom,10431,-23.68764,-46.85873,13.7165613174,RUA TERRA NOVA,0.116991039431241
435,1,PCA DOS LIMOEIROS,EMBU DAS ARTES,EMBU DAS ARTES,,TomTom,10432,-23.68083,-46.85616,13.4496192932,PCA DOS LIMOEIROS,0.0716176832800113
436,165,AVENIDA COQUEIROS DOS,EMBU DAS ARTES,EMBU DAS ARTES,,TomTom,10433,-23.67836,-46.85577,15.235669136,AVENIDA COQUEIROS DOS,0.1168615224323615
437,420,RUA PAU BRASIL,EMBU DAS ARTES,EMBU DAS ARTES,,Google,10434,-23.6793825,-46.8548116,,RUA PAU BRASIL,0.0255942492525775
438,44,RUA CAJUEIRO,EMBU DAS ARTES,EMBU DAS ARTES,,Google,10435,-23.6799987,-46.8526677,,RUA CAJUEIRO,0.072188481213746
439,175,RUA CAQUI,EMBU DAS ARTES,EMBU DAS ARTES,,Google,10436,-23.6821063,-46.8491469,,RUA CAQUI,0.022455795143217
440,127,RUA MONTE ALEGRE,EMBU DAS ARTES,EMBU DAS ARTES,,TomTom,10437,-23.66905,-46.8535,16.0661945343,RUA MONTE ALEGRE,0.0210140492800562
441,254,NOSSA SRA DONA CONCEICAO,EMBU DAS ARTES,EMBU DAS ARTES,,Google,10438,-23.6733408,-46.8463456,,NOSSA SRA DONA CONCEICAO,0.0243864277378112
442,42,NOSSA SENHORA DE FATIMA,EMBU DAS ARTES,EMBU DAS ARTES,,MapBox,10439,-23.673548,-46.8453562,0.762222,NOSSA SENHORA DE FATIMA,0.0052229626538161
443,3970,ESTRADA JOAO RODRIGUES DE MORAES,ITAPECERICA DONA SERRA,ITAPECERICA DA SERRA,,MapBox,10440,-23.716849,-46.818046,0.643199,ESTRADA JOAO RODRIGUES DE MORAES,0.6942381855265334
444,3818,ESTRADA JOAO RODRIGUES DE MORAES,ITAPECERICA DONA SERRA,ITAPECERICA DA SERRA,,MapBox,10441,-23.7171,-46.817637,0.643199,ESTRADA JOAO RODRIGUES DE MORAES,0.518094566723391
445,6335,ESTRADA JOAO RODRIGUES DE MORAES,ITAPECERICA DONA SERRA,ITAPECERICA DA SERRA,,MapBox,10442,-23.7171001,-46.8176366150823,0.602795,ESTRADA JOAO RODRIGUES DE MORAES,0.7461457322636776
446,        40,GILBERTO AUGUSTINHO,ITAPECERICA DONA SERRA,ITAPECERICA DA SERRA,,Google,10443,-23.7032168,-46.8031869,,GILBERTO AUGUSTINHO,1.6855895188548042
447,1200,AVENIDA SOLDADOPOLICIA MILITAR GILBERTO AUGUSTINHO,ITAPECERICA DONA SERRA,ITAPECERICA DA SERRA,,Google,10444,-23.6964847,-46.801848,,AVENIDA SOLDADOPOLICIA MILITAR GILBERTO AUGUSTINHO,1.357914816680662
448,1250,AVENIDA SOLDADO GILBERTO AUGUSTINHO,ITAPECERICA DONA SERRA,ITAPECERICA DA SERRA,,MapBox,10445,-23.697344,-46.801998,0.545556,AVENIDA SOLDADO GILBERTO AUGUSTINHO,1.240801452185848
449,S/N,RUA TOPAZIO,ITAPECERICA DONA SERRA,ITAPECERICA DA SERRA,,TomTom,10446,-23.69513,-46.81185,11.619134903,RUA TOPAZIO,0.0214204865684463
450,400,EST VITORIO TRENTIN DE,ITAPECERICA DONA SERRA,ITAPECERICA DA SERRA,,TomTom,10447,-23.7233,-46.79878,12.2899894714,EST VITORIO TRENTIN DE,0.0259143797084726
451,7,RUA POTENGE,ITAPECERICA DONA SERRA,ITAPECERICA DA SERRA,,TomTom,10448,-23.72167,-46.79875,11.557847023,RUA POTENGE,0.0244649084647364
452,100,EST JOAO RODRIGUES DE MORAES,ITAPECERICA DONA SERRA,ITAPECERICA DA SERRA,,Google,10449,-23.7197752,-46.7983875,,EST JOAO RODRIGUES DE MORAES,0.2692929305890882
453,300,RUA FLORIANO PEIXOTO,ITAPECERICA DONA SERRA,ITAPECERICA DA SERRA,,TomTom,10450,-23.70776,-46.80636,13.8773012161,RUA FLORIANO PEIXOTO,0.2473042058233749
454,4,RUA NOVA GRANADA,ITAPECERICA DONA SERRA,ITAPECERICA DA SERRA,,TomTom,10451,-23.70344,-46.80529,13.8773012161,RUA NOVA GRANADA,0.0042098858046591
455,136,GETULIO VARGAS,ITAPECERICA DONA SERRA,ITAPECERICA DA SERRA,,Google,10452,-23.7048144,-46.8032853,,GETULIO VARGAS,0.1934105236410498
456,2100,AVENIDA SOLDADOPM GILBERTO AUGUSTINHO,ITAPECERICA DONA SERRA,ITAPECERICA DA SERRA,,TomTom,10453,-23.70396,-46.80381,13.2483053207,AVENIDA SOLDADOPM GILBERTO AUGUSTINHO,0.1935906725132178
457,4,EST COQUEIROS DOS,ITAPECERICA DONA SERRA,ITAPECERICA DA SERRA,,TomTom,10454,-23.69866,-46.80152,12.8860359192,EST COQUEIROS DOS,0.011524154383375
458,245,EST PINHEIROS DOS,ITAPECERICA DONA SERRA,ITAPECERICA DA SERRA,,TomTom,10455,-23.70301,-46.79614,12.8860359192,EST PINHEIROS DOS,0.0052542876137374
459,165,ESTRADA GUARANTANS,ITAPECERICA DONA SERRA,ITAPECERICA DA SERRA,,Google,10456,-23.7019366,-46.7933957,,ESTRADA GUARANTANS,0.028714850753942
460,228,RUA SOLEDADE DE MINAS,ITAPECERICA DONA SERRA,ITAPECERICA DA SERRA,,TomTom,10457,-23.69125,-46.79898,16.0262870789,RUA SOLEDADE DE MINAS,0.0114191841106461
461,      1754,LUAR DO SERTAO,SAO PAULO,CAPAO REDONDO,,Google,10458,-23.6908812,-46.798545,,LUAR DO SERTAO,0.0534537880317816
462,      1039,PEROBEIRAS,SAO PAULO,CAPAO REDONDO,,Google,10459,-23.6929175,-46.79673289999999,,PEROBEIRAS,0.0463179401599481
463,738,PEROBEIRAS,SAO PAULO,CAPAO REDONDO,,Google,10460,-23.693093,-46.7955523,,PEROBEIRAS,0.0162386724420985
464,SN,RUA TEOFILO OTONI,ITAPECERICA DONA SERRA,ITAPECERICA DA SERRA,,TomTom,10461,-23.68936,-46.82478,12.280424118,RUA TEOFILO OTONI,0.0828402359535481
465,56,RUA PIRATINI,ITAPECERICA DONA SERRA,ITAPECERICA DA SERRA,,Google,10462,-23.6885546,-46.8244135,,RUA PIRATINI,0.1383464375482554
466,56,RUA PIRATINI,ITAPECERICA DONA SERRA,ITAPECERICA DA SERRA,,Google,10463,-23.6885546,-46.8244135,,RUA PIRATINI,0.1383464375482554
467,284,RUA ERVAL,ITAPECERICA DONA SERRA,ITAPECERICA DA SERRA,,MapBox,10464,-23.687935,-46.822714,0.582593,RUA ERVAL,0.0040991573060033
468,36,RUA ARACATUBA,ITAPECERICA DONA SERRA,ITAPECERICA DA SERRA,,TomTom,10465,-23.68969,-46.81552,11.557847023,RUA ARACATUBA,0.029094210390342
469,119,RUA VAL PARAISO,ITAPECERICA DONA SERRA,ITAPECERICA DA SERRA,,TomTom,10466,-23.68756,-46.81654,12.1140203476,RUA VAL PARAISO,0.0236178439560627
470,23,ESTRADA DOS MORAES,EMBU DAS ARTES,EMBU DAS ARTES,,MapBox,10467,-23.6612079,-46.8203762,0.792469,ESTRADA DOS MORAES,0.3298649684900213
471,114,BOLIVIA,EMBU DAS ARTES,EMBU DAS ARTES,,Google,10468,-23.6600259,-46.8202805,,BOLIVIA,0.0582675388161583
472,200,RUA BOLIVIA,EMBU DAS ARTES,EMBU DAS ARTES,,MapBox,10469,-23.660117,-46.818895,0.823333,RUA BOLIVIA,0.0205808474949888
473,1188,ESTRADA SIAO,EMBU DAS ARTES,EMBU DAS ARTES,,Google,10470,-23.6666466,-46.8105038,,ESTRADA SIAO,0.0634337267274161
474,100,ESTRADA DE SAO JOSE,EMBU DAS ARTES,EMBU DAS ARTES,,Google,10471,-23.6583674,-46.8070114,,ESTRADA DE SAO JOSE,1.053840672875482
475,152,RUA AUGUSTO ALMEIDA BATISTA,EMBU DAS ARTES,EMBU DAS ARTES,,TomTom,10472,-23.65829,-46.81508,18.1000518799,RUA AUGUSTO ALMEIDA BATISTA,0.4078593060698774
476,S/N,RUA CHILE,EMBU DAS ARTES,EMBU DAS ARTES,,MapBox,10473,-23.659488,-46.8170732,0.743086,RUA CHILE,0.1608029820973922
477,13,RUA SAO BERNARDO,EMBU DAS ARTES,EMBU DAS ARTES,,MapBox,10474,-23.6601967,-46.8143468,0.792469,RUA SAO BERNARDO,0.041214260116377
478,25,RUA SAO BERNARDO,EMBU DAS ARTES,EMBU DAS ARTES,,MapBox,10475,-23.6601967,-46.8143468,0.792469,RUA SAO BERNARDO,0.0423613000602376
479,354,RUA AUGUSTO ALMEIDA BATISTA,EMBU DAS ARTES,EMBU DAS ARTES,,TomTom,10476,-23.65927,-46.81529,18.1000518799,RUA AUGUSTO ALMEIDA BATISTA,0.0283520487498109
480,25,RUA LISBOA,ITAPECERICA DONA SERRA,ITAPECERICA DA SERRA,,Google,10477,-23.6904694,-46.8013368,,RUA LISBOA,0.0178771496483612
481,314,GIBRALTAR,ITAPECERICA DONA SERRA,ITAPECERICA DA SERRA,,Google,10478,-23.6889737,-46.8010254,,GIBRALTAR,0.0929109967003202
482,90,RUA PEROBA,EMBU DAS ARTES,EMBU DAS ARTES,,MapBox,10479,-23.683195,-46.806871,0.823333,RUA PEROBA,0.2150739509117702
483,25,RUA AVARE,EMBU DAS ARTES,EMBU DAS ARTES,,MapBox,10480,-23.67989,-46.804228,0.823333,RUA AVARE,0.4836666112115462
484,108,AGUAS DE SAO PEDRO,EMBU DAS ARTES,EMBU DAS ARTES,,TomTom,10481,-23.67524,-46.80442,18.1000518799,AGUAS DE SAO PEDRO,0.016669698471865
485,164,RUA IBIUNA,EMBU DAS ARTES,EMBU DAS ARTES,,TomTom,10482,-23.67573,-46.80134,14.0704584122,RUA IBIUNA,0.0200040413554026
486,      1422,PEROBEIRAS,SAO PAULO,CAPAO REDONDO,,MapBox,10483,-23.6893253,-46.7977345,0.651852,PEROBEIRAS,0.0160683659903606
487,400,RUA FLANDRES,SAO PAULO,CAPAO REDONDO,,OpenRouteService,10484,-23.687649,-46.7998,0.8,RUA FLANDRES,0.2000809417673278
488,9950,EST ITAPECERICA DE,SAO PAULO,CAPAO REDONDO,,MapBox,10485,-23.677014,-46.793146,0.732361,EST ITAPECERICA DE,1.216608864785683
489,915,AVENIDA FEITICO DONA VILA,SAO PAULO,CAPAO REDONDO,,TomTom,10486,-23.68662,-46.79994,13.8668308258,AVENIDA FEITICO DONA VILA,0.0209670286050041
490,877,FEITICO DONA VILA,SAO PAULO,CAPAO REDONDO,,TomTom,10487,-23.68691,-46.79963,11.4994335175,FEITICO DONA VILA,0.012293022078799
491,877,FEITICO DONA VILA,SAO PAULO,CAPAO REDONDO,,TomTom,10488,-23.68691,-46.79963,11.4994335175,FEITICO DONA VILA,0.012293022078799
492,      8845,ITAPECERICA,SAO PAULO,CAPAO REDONDO,,Google,10489,-23.6842854,-46.79844569999999,,ITAPECERICA,0.1065160036013026
493,130,TRIBO DOS ACRAS,SAO PAULO,CAPAO REDONDO,,MapBox,10490,-23.6834793,-46.7988136,0.678889,TRIBO DOS ACRAS,0.0663756910325521
494,360,PEROBEIRAS,SAO PAULO,CAPAO REDONDO,,Google,10491,-23.6899391,-46.7967364,,PEROBEIRAS,0.0186527679780119
495,       307,LUAR DO SERTAO,SAO PAULO,CAPAO REDONDO,,Google,10492,-23.6887038,-46.7930931,,LUAR DO SERTAO,0.0167738453892422
496,491-A,RUA DONA MOENDA,SAO PAULO,CAPAO REDONDO,,Google,10493,-23.6850715,-46.79493859999999,,RUA DONA MOENDA,0.1649448749196082
497,399,FEITICO DONA VILA,SAO PAULO,CAPAO REDONDO,,Google,10494,-23.686523,-46.794625,,FEITICO DONA VILA,0.0154390022188871
498,399,FEITICO DONA VILA,SAO PAULO,CAPAO REDONDO,,Google,10495,-23.686523,-46.794625,,FEITICO DONA VILA,0.0154390022188871
499,399,FEITICO DONA VILA,SAO PAULO,CAPAO REDONDO,,Google,10496,-23.686523,-46.794625,,FEITICO DONA VILA,0.0154390022188871
500,399,FEITICO DONA VILA,SAO PAULO,CAPAO REDONDO,,Google,10497,-23.686523,-46.794625,,FEITICO DONA VILA,0.0154390022188871
501,         7,LUAR DO SERTAO,SAO PAULO,CAPAO REDONDO,,Google,10498,-23.6866058,-46.7927898,,LUAR DO SERTAO,0.08210497178284
502,         9,LUAR DO SERTAO,SAO PAULO,CAPAO REDONDO,,Google,10499,-23.6863811,-46.7935658,,LUAR DO SERTAO,0.0037846915820574
503,12,ACAFRAODATERRA,SAO PAULO,CAPAO REDONDO,,Google,10500,-23.6792179,-46.7982929,,ACAFRAODATERRA,0.0293906106614084
504,387,MOACYR DO AMARAL SANTOS MINISTRO,SAO PAULO,CAPAO REDONDO,,TomTom,10501,-23.67755,-46.79856,18.2369422913,MOACYR DO AMARAL SANTOS MINISTRO,0.0030580094367433
505,405,GINGADINHO,SAO PAULO,CAPAO REDONDO,,Google,10502,-23.6792386,-46.79505959999999,,GINGADINHO,0.1320100069533184
506,365,RUA GINGADINHO,SAO PAULO,CAPAO REDONDO,,OpenRouteService,10503,-23.68008,-46.795359,0.8,RUA GINGADINHO,0.0142470123945214
507,20,RUA CANTORIAS PAULISTAS,SAO PAULO,CAPAO REDONDO,,MapBox,10504,-23.679913,-46.7947,0.788611,RUA CANTORIAS PAULISTAS,0.0542289319203319
508,51,ACARIRANA,SAO PAULO,CAPAO REDONDO,,TomTom,10505,-23.678,-46.79781,9.6567392349,ACARIRANA,0.1149816232651184
509,255,ANUMDOURADO,SAO PAULO,CAPAO REDONDO,,Google,10506,-23.6769888,-46.79583479999999,,ANUMDOURADO,0.0722709169873545
510,350,ANDORINHADOSBEIRAIS,SAO PAULO,CAPAO REDONDO,,Google,10507,-23.675092,-46.7956914,,ANDORINHADOSBEIRAIS,0.1125168597849643
511,       503,ANDORINHADOSBEIRAIS,SAO PAULO,CAPAO REDONDO,,Google,10508,-23.6742463,-46.7967816,,ANDORINHADOSBEIRAIS,0.4191549482983967
512,S N,ANDORINHADOSBEIRAIS,SAO PAULO,CAPAO REDONDO,,Google,10509,-23.676032,-46.7951163,,ANDORINHADOSBEIRAIS,0.1572041451477191
513,410,RUA ERVAL SECO,EMBU DAS ARTES,EMBU DAS ARTES,,Google,10510,-23.6733061,-46.80759080000001,,RUA ERVAL SECO,0.0267109430429984
514,100,RUA BOTUCATU,EMBU DAS ARTES,EMBU DAS ARTES,,Google,10511,-23.6673977,-46.807045,,RUA BOTUCATU,0.0024754079129917
515,37,RUA AVARE,EMBU DAS ARTES,EMBU DAS ARTES,,MapBox,10512,-23.674209,-46.80344,0.823333,RUA AVARE,0.0820817785289898
516,2617,ESTRADA ITAPECERICA C LIMPO,EMBU DAS ARTES,EMBU DAS ARTES,,Google,10513,-23.6696691,-46.8027764,,ESTRADA ITAPECERICA C LIMPO,0.0607532645498779
517,40,RUA TATUI,EMBU DAS ARTES,EMBU DAS ARTES,,Google,10514,-23.6686304,-46.8048876,,RUA TATUI,0.0062379296676843
518,378,RUA OLIVEIRA,EMBU DAS ARTES,EMBU DAS ARTES,,Google,10515,-23.6704131,-46.8011483,,RUA OLIVEIRA,0.0190295892563621
519,30,RUA HENFIL HENRIQUE DE SOUZA FILHO,EMBU DAS ARTES,EMBU DAS ARTES,,Google,10516,-23.6657592,-46.8061977,,RUA HENFIL HENRIQUE DE SOUZA FILHO,0.0192762864164351
520,63,ESTRADA SAO FRANCISCO,EMBU DAS ARTES,EMBU DAS ARTES,,MapBox,10517,-23.6596794,-46.8067602,0.743086,ESTRADA SAO FRANCISCO,0.1631199151042185
521,145,RUA SAO GABRIEL,EMBU DAS ARTES,EMBU DAS ARTES,,Google,10518,-23.6652206,-46.8048265,,RUA SAO GABRIEL,0.0130754766970555
522,50,RUA GUAIBA,EMBU DAS ARTES,EMBU DAS ARTES,,TomTom,10519,-23.66325,-46.80191,13.9074802399,RUA GUAIBA,0.2089914351361029
523,150,RUA ANA MARIA,EMBU DAS ARTES,EMBU DAS ARTES,,TomTom,10520,-23.67265,-46.79917,16.2544689178,RUA ANA MARIA,0.0125395525109434
524,560,RUA OLIVEIRA,EMBU DAS ARTES,EMBU DAS ARTES,,MapBox,10521,-23.669436,-46.800275,0.823333,RUA OLIVEIRA,0.0260232827746012
525,665,ESTRADA DE ITAPCAMPO LIMPO,EMBU DAS ARTES,EMBU DAS ARTES,,TomTom,10522,-23.65484,-46.79506,13.1811676025,ESTRADA DE ITAPCAMPO LIMPO,1.4401232636590278
526,198,TRAVESSA SETEMBRO DE 1983,SAO PAULO,CAPAO REDONDO,,TomTom,10523,-23.67375,-46.79629,16.4244728088,TRAVESSA SETEMBRO DE 1983,0.0502266062611647
527,127,ANTONIO FORLENZA,SAO PAULO,CAPAO REDONDO,,TomTom,10524,-23.67559,-46.79311,12.0475168228,ANTONIO FORLENZA,0.1591610335923544
528,58,RUA LUIZA,EMBU DAS ARTES,EMBU DAS ARTES,,TomTom,10525,-23.66951,-46.79666,12.9755477905,RUA LUIZA,0.0121341065150003
529,1904,ESTRADA ITAPECERICACAMPO LIMPO,EMBU DAS ARTES,EMBU DAS ARTES,,TomTom,10526,-23.6644,-46.7998,15.347864151,ESTRADA ITAPECERICACAMPO LIMPO,0.0318175712995355
530,90,RUA SEN TANCREDO NEVES,EMBU DAS ARTES,EMBU DAS ARTES,,Google,10527,-23.6632948,-46.800054,,RUA SEN TANCREDO NEVES,0.0026256589246007
531,52,ESTRADA ITAPECERICA A CAMPO LIMPO,EMBU DAS ARTES,EMBU DAS ARTES,,TomTom,10528,-23.64981,-46.79274,18.1833972931,ESTRADA ITAPECERICA A CAMPO LIMPO,1.4678639074541255
532,691,RUA ANTONIO JOSE BENTES,SAO PAULO,CAPAO REDONDO,,MapBox,10529,-23.665008,-46.790316,0.801728,RUA ANTONIO JOSE BENTES,0.4156971063699817
533,690,ANTONIO JOSE BENTES,SAO PAULO,CAPAO REDONDO,,TomTom,10530,-23.66525,-46.78959,14.211019516,ANTONIO JOSE BENTES,0.4775623469598494
534,87,FLORIANO PEIXOTO,EMBU DAS ARTES,EMBU DAS ARTES,,Google,10531,-23.6603737,-46.7967996,,FLORIANO PEIXOTO,0.1934382648861067
535,83,RUA MARECHAL FLORIANO PEIXOTO,EMBU DAS ARTES,EMBU DAS ARTES,,MapBox,10532,-23.6632983,-46.7969406,0.762222,RUA MARECHAL FLORIANO PEIXOTO,0.1365097507551773
536,100,BICCI DI LORENZO,SAO PAULO,CAPAO REDONDO,,Google,10533,-23.6597476,-46.7941047,,BICCI DI LORENZO,0.0221585435247185
537,53,RUA SANTO ANTONIO,EMBU DAS ARTES,EMBU DAS ARTES,,Google,10534,-23.6590632,-46.860581,,RUA SANTO ANTONIO,0.4795221719283968
538,25,ALAMEDA FERNANDO BAPT MEDINA,EMBU DAS ARTES,EMBU DAS ARTES,,Google,10535,-23.6526579,-46.855902,,ALAMEDA FERNANDO BAPT MEDINA,0.0068386829974021
539,85,BELO HORIZONTE,EMBU DAS ARTES,EMBU DAS ARTES,,Google,10536,-23.6504079,-46.8538457,,BELO HORIZONTE,0.0052932594045586
540,80,RUA PADRE JOAO ALVARES,EMBU DAS ARTES,EMBU DAS ARTES,,Google,10537,-23.6536248,-46.8503903,,RUA PADRE JOAO ALVARES,0.0566876012520659
541,S/N,AVENIDA CANDIDO DE MOTTA FILHO,EMBU DAS ARTES,EMBU DAS ARTES,,Google,10538,-23.6437266,-46.8540205,,AVENIDA CANDIDO DE MOTTA FILHO,0.2995515159154465
542,81,RUA PIAUI,EMBU DAS ARTES,EMBU DAS ARTES,,Google,10539,-23.6443588,-46.8503962,,RUA PIAUI,0.0074089832853024
543,18,ESTRADA DO GRAMADO,EMBU DAS ARTES,EMBU DAS ARTES,,Google,10540,-23.6555753,-46.8486136,,ESTRADA DO GRAMADO,0.0154317769347459
544,238,RUA ALEXANDRE KADUNC,EMBU DAS ARTES,EMBU DAS ARTES,,Google,10541,-23.6498081,-46.8532804,,RUA ALEXANDRE KADUNC,0.5610245527464944
545,14,RUA LIVIO ABRAMO,EMBU DAS ARTES,EMBU DAS ARTES,,TomTom,10542,-23.64637,-46.84922,16.0661945343,RUA LIVIO ABRAMO,0.0036632541787891
546,31,RUA GEORGINA DE ALBUQUERQUE,EMBU DAS ARTES,EMBU DAS ARTES,,Google,10543,-23.6470807,-46.84792400000001,,RUA GEORGINA DE ALBUQUERQUE,0.0077898601044591
547,108,RUA FRANCISCO ALVES,EMBU DAS ARTES,EMBU DAS ARTES,,MapBox,10544,-23.6476532,-46.8458909,0.792469,RUA FRANCISCO ALVES,0.0134189400838798
548,410,RUA ALEARDO CARPI,EMBU DAS ARTES,EMBU DAS ARTES,,MapBox,10545,-23.6437888,-46.8464222,0.792469,RUA ALEARDO CARPI,0.0285615504365459
549,10,RUA SANTA LUZIA,EMBU DAS ARTES,EMBU DAS ARTES,,Google,10546,-23.6411424,-46.8547775,,RUA SANTA LUZIA,0.2557194452116201
550,38,RUA MAR VERMELHO,EMBU DAS ARTES,EMBU DAS ARTES,,TomTom,10547,-23.64103,-46.85148,16.0661945343,RUA MAR VERMELHO,0.5556547147349205
551,1071,EST PROFESSOR CANDIDO MOTTA FILHO,EMBU DAS ARTES,EMBU DAS ARTES,,Google,10548,-23.640744,-46.852308,,EST PROFESSOR CANDIDO MOTTA FILHO,0.0316626086260008
552,860,ESTRADA KEIISHI MATSUMOTO,EMBU DAS ARTES,EMBU DAS ARTES,,TomTom,10549,-23.63221,-46.85157,14.8976812363,ESTRADA KEIISHI MATSUMOTO,0.2095749504700194
553,77,RUA SEBASTIAO ANACLETO JESUS LINS,EMBU DAS ARTES,EMBU DAS ARTES,,TomTom,10550,-23.65525,-46.84119,20.2602729797,RUA SEBASTIAO ANACLETO JESUS LINS,0.0731185141770144
554,580,AVENIDA ROTARY,EMBU DAS ARTES,EMBU DAS ARTES,,TomTom,10551,-23.64804,-46.83648,13.9074802399,AVENIDA ROTARY,0.0216853390131077
555,1051,AVENIDA ROTARY,EMBU DAS ARTES,EMBU DAS ARTES,,TomTom,10552,-23.6483,-46.83375,14.0704584122,AVENIDA ROTARY,0.2430783245339112
556,529,RUA MARCELINO PINTO TEIXEIRA,EMBU DAS ARTES,EMBU DAS ARTES,,TomTom,10553,-23.64443,-46.83264,18.1833972931,RUA MARCELINO PINTO TEIXEIRA,0.015551414044252
557,SN,AVENIDA ANTONIO MORY,EMBU DAS ARTES,EMBU DAS ARTES,,Google,10554,-23.6367427,-46.8396137,,AVENIDA ANTONIO MORY,0.0889723642071301
558,122,RUA DO ENGENHEIRO,EMBU DAS ARTES,EMBU DAS ARTES,,MapBox,10555,-23.6389558,-46.8377048,0.792469,RUA DO ENGENHEIRO,0.0024242869736856
559,100,RUA DAS MARGARIDAS,EMBU DAS ARTES,EMBU DAS ARTES,,Google,10556,-23.6384682,-46.8299635,,RUA DAS MARGARIDAS,0.0152049276031928
560,2025,EST KEISHI MATSUMOTO,EMBU DAS ARTES,EMBU DAS ARTES,,TomTom,10557,-23.62068,-46.8488,16.0661945343,EST KEISHI MATSUMOTO,0.0139190293477465
561,610,EST EMBU DO,COTIA,COTIA,,TomTom,10558,-23.6021,-46.85663,11.1144161224,EST EMBU DO,0.0548922382279807
562,645,EST EMBU DO,COTIA,COTIA,,TomTom,10559,-23.60236,-46.85611,11.1144161224,EST EMBU DO,0.0264416478523444
563,199,RUA SERRANA,COTIA,COTIA,,OpenRouteService,10560,-23.607628,-46.853174,0.8,RUA SERRANA,0.0728641591202076
564,20,RUA INDOCHINA,COTIA,COTIA,,TomTom,10561,-23.59894,-46.85474,9.9009103775,RUA INDOCHINA,0.0018268611770032
565,25,SALMA,COTIA,COTIA,,Google,10562,-23.5932523,-46.8519337,,SALMA,0.0170509363788214
566,181,ESTRADA NOSSA SRA DE FATIMA,COTIA,COTIA,,Google,10563,-23.6059252,-46.926502,,ESTRADA NOSSA SRA DE FATIMA,7.973840178761288
567,109,MESOPOTAMIA,COTIA,COTIA,,TomTom,10564,-23.60153,-46.84759,7.372800827,MESOPOTAMIA,0.5053764080259936
568,300,RUA MESOPOTANIA,COTIA,COTIA,,Google,10565,-23.6039393,-46.8481073,,RUA MESOPOTANIA,0.1307141183088163
569,810,RUA SALMA,COTIA,COTIA,,Google,10566,-23.5932043,-46.8480751,,RUA SALMA,0.016879336043782
570,169,RUA NEMITALA,COTIA,COTIA,,OpenRouteService,10567,-23.597161,-46.847756,0.8,RUA NEMITALA,0.0897684493358566
571,1,RUA FLORESTA,COTIA,COTIA,,Google,10568,-23.5952988,-46.8465348,,RUA FLORESTA,0.0368258789053544
572,666,AVENIDA MARGINAL,COTIA,COTIA,,TomTom,10569,-23.59904,-46.84484,9.8938007355,AVENIDA MARGINAL,0.0924666802266103
573,110,DIREITA,COTIA,COTIA,,TomTom,10570,-23.59731,-46.84557,7.4592003822,DIREITA,0.0822385305211566
574,420,CHERUBINA VIANA,COTIA,COTIA,,TomTom,10571,-23.59469,-46.84264,9.6865129471,CHERUBINA VIANA,0.0591600269959169
575,602,RUA HAMUM,COTIA,COTIA,,Google,10572,-23.6182291,-46.8400036,,RUA HAMUM,0.0126707954013394
576,14,RUA DONINHAS DAS,COTIA,COTIA,,TomTom,10573,-23.6141,-46.83794,11.1144161224,RUA DONINHAS DAS,0.006871226808436
577,1734,JOAO PAULO ABLAS,COTIA,COTIA,,Google,10574,-23.6119626,-46.8391098,,JOAO PAULO ABLAS,0.0478908419307263
578,275,RUA TIMBURI,COTIA,COTIA,,Google,10575,-23.6127624,-46.8351196,,RUA TIMBURI,0.0085723531366376
579,319,RUA SANTO ANTONIO,COTIA,COTIA,,TomTom,10576,-23.59464,-46.84114,11.9449415207,RUA SANTO ANTONIO,0.051698283695638
580,7200,ROD RAPOSO TAVARES,COTIA,COTIA,,Google,10577,-23.5954764,-46.8386427,,ROD RAPOSO TAVARES,0.0666834415875168
581,81,RUA JOSE FELIX DE OLIVEIRA,COTIA,COTIA,,Google,10578,-23.5934361,-46.8395641,,RUA JOSE FELIX DE OLIVEIRA,0.0495007165165744
582,S/N,ROD RAPOSO TAVARES,COTIA,COTIA,,MapBox,10579,-23.5966764,-46.8593607,0.628889,ROD RAPOSO TAVARES,2.1315953617704
583,1011,RUA GENERAL FERNANDO VASCONCELLOS CAVALCANTI DE ALBUQUERQUE,COTIA,COTIA,,MapBox,10580,-23.5943283,-46.8342434,0.770303,RUA GENERAL FERNANDO VASCONCELLOS CAVALCANTI DE ALBUQUERQUE,0.0368163421563692
584,962,EST DOS GALDINOS,COTIA,COTIA,,TomTom,10581,-23.60318,-46.8262,12.0849208832,EST DOS GALDINOS,0.0786061863502931
585,S/N,RUA MONET,COTIA,COTIA,,Google,10582,-23.5952009,-46.8273077,,RUA MONET,0.0114753228081553
586,25,RUA EQUADOR,EMBU DAS ARTES,EMBU DAS ARTES,,Google,10583,-23.6577737,-46.8189786,,RUA EQUADOR,0.0128173509675673
587,186,RUA ZUMBI DOS PALMARES,EMBU DAS ARTES,EMBU DAS ARTES,,Google,10584,-23.6517526,-46.8188516,,RUA ZUMBI DOS PALMARES,0.241893463251837
588,240,ZUMBI DOS PALMARES,EMBU DAS ARTES,EMBU DAS ARTES,,Google,10585,-23.6520106,-46.8185614,,ZUMBI DOS PALMARES,0.0233053623879904
589,127,RUA FCA RODRIGUES ADRIANO,EMBU DAS ARTES,EMBU DAS ARTES,,Google,10586,-23.6479329,-46.8200291,,RUA FCA RODRIGUES ADRIANO,0.1637801092128567
590,936,AVENIDA AIMARA,EMBU DAS ARTES,EMBU DAS ARTES,,Google,10587,-23.6557956,-46.81510610000001,,AVENIDA AIMARA,0.0289256176671671
591,5,RUA EMBU GUACU,EMBU DAS ARTES,EMBU DAS ARTES,,TomTom,10588,-23.65246,-46.81586,16.1059646606,RUA EMBU GUACU,0.0094907393164714
592,40,RUA JOACABA,EMBU DAS ARTES,EMBU DAS ARTES,,Google,10589,-23.6520834,-46.8162027,,RUA JOACABA,0.0169824426543119
593,192,RUA SAO CAETANO,EMBU DAS ARTES,EMBU DAS ARTES,,MapBox,10590,-23.6568665,-46.8076398774087,0.792469,RUA SAO CAETANO,0.3278954414417762
594,100,RUA UBIRATAN,EMBU DAS ARTES,EMBU DAS ARTES,,TomTom,10591,-23.64859,-46.81565,12.9422807693,RUA UBIRATAN,0.0129210919497872
595,12,RUA IRACEMA,EMBU DAS ARTES,EMBU DAS ARTES,,Google,10592,-23.6475177,-46.8154687,,RUA IRACEMA,0.0120817123988353
596,100,RUA NARUMI NAKAYAMA,EMBU DAS ARTES,EMBU DAS ARTES,,Google,10593,-23.6454887,-46.8190786,,RUA NARUMI NAKAYAMA,0.5690545046359435
597,27,GABAO,EMBU DAS ARTES,EMBU DAS ARTES,,Google,10594,-23.6424457,-46.8136665,,GABAO,0.008088508103456
598,55,RUA GABAO,EMBU DAS ARTES,EMBU DAS ARTES,,TomTom,10595,-23.64255,-46.81345,13.9074802399,RUA GABAO,0.0066953942409991
599,314,RUA ETIOPIA,EMBU DAS ARTES,EMBU DAS ARTES,,TomTom,10596,-23.6422,-46.81132,13.9074802399,RUA ETIOPIA,0.0085406974746653
600,25,RUA NOVO HAMBURGO,EMBU DAS ARTES,EMBU DAS ARTES,,Google,10597,-23.6321072,-46.8244986,,RUA NOVO HAMBURGO,0.0173629400653043
601,55,RUA NOVO HAMBURGO,EMBU DAS ARTES,EMBU DAS ARTES,,TomTom,10598,-23.63117,-46.82492,16.0661945343,RUA NOVO HAMBURGO,0.0823022260215653
602,41,RUA SAO RAFAEL,EMBU DAS ARTES,EMBU DAS ARTES,,MapBox,10599,-23.629114,-46.8241194,0.792469,RUA SAO RAFAEL,0.0590745260773285
603,59,RUA SAO RAFAEL,EMBU DAS ARTES,EMBU DAS ARTES,,MapBox,10600,-23.629114,-46.8241194,0.792469,RUA SAO RAFAEL,0.0033026405986901
604,386,AMELIA DOS ANJOS OLIVEIRA,EMBU DAS ARTES,EMBU DAS ARTES,,Google,10601,-23.6279983,-46.8262088,,AMELIA DOS ANJOS OLIVEIRA,0.2173123329356459
605,27,RUA SAO BENEDITO,EMBU DAS ARTES,EMBU DAS ARTES,,Google,10602,-23.6289561,-46.8230277,,RUA SAO BENEDITO,0.0613524524152898
606,156,RUA BELEM,EMBU DAS ARTES,EMBU DAS ARTES,,Google,10603,-23.6262519,-46.8194908,,RUA BELEM,0.0047945628644521
607,19,RUA ANGOLA,EMBU DAS ARTES,EMBU DAS ARTES,,TomTom,10604,-23.64068,-46.8147,13.9074802399,RUA ANGOLA,0.0963222747939862
608,1320,AVENIDA IBIRAMA,TABOAO DONA SERRA,TABOAO DA SERRA,,MapBox,10605,-23.640029,-46.810761,0.582593,AVENIDA IBIRAMA,0.0199626529378032
609,2,RUA JARDIM SUSPENSO,EMBU DAS ARTES,EMBU DAS ARTES,,Google,10606,-23.6289519,-46.8147427,,RUA JARDIM SUSPENSO,0.041152046300627
610,215,RUA VITORIA M DE JESUS,TABOAO DONA SERRA,TABOAO DA SERRA,,TomTom,10607,-23.6287,-46.81086,17.9667606354,RUA VITORIA M DE JESUS,0.049593877766032
611,350,RUA PAULO AUGUSTO DE ANDRADE,TABOAO DONA SERRA,TABOAO DA SERRA,,Google,10608,-23.6268811,-46.8094696,,RUA PAULO AUGUSTO DE ANDRADE,0.0336364349271114
612,27,RUA DONA PATRIA,TABOAO DONA SERRA,TABOAO DA SERRA,,Google,10609,-23.6269426,-46.8114581,,RUA DONA PATRIA,0.1676866024216659
613,350,RUA BELO MONTE,TABOAO DONA SERRA,TABOAO DA SERRA,,Google,10610,-23.625902,-46.8104349,,RUA BELO MONTE,0.1101446248690071
614,50,RUA SAO LUCAS,EMBU DAS ARTES,EMBU DAS ARTES,,TomTom,10611,-23.65849,-46.80528,16.2544689178,RUA SAO LUCAS,0.0199689242909217
615,2,AVENIDA SANTA TEREZA,EMBU DAS ARTES,EMBU DAS ARTES,,MapBox,10612,-23.64967985,-46.8061860856945,0.792469,AVENIDA SANTA TEREZA,0.2503920471185742
616,30,AVENIDA SANTA TEREZA,EMBU DAS ARTES,EMBU DAS ARTES,,MapBox,10613,-23.64967985,-46.8061860856945,0.792469,AVENIDA SANTA TEREZA,0.2308424184507371
617,783,BRASIL,EMBU DAS ARTES,EMBU DAS ARTES,,MapBox,10614,-23.6541783,-46.8077563474452,0.683651,BRASIL,0.3617013559618637
618,150,RUA PENHA,EMBU DAS ARTES,EMBU DAS ARTES,,MapBox,10615,-23.653137,-46.8037943,0.767778,RUA PENHA,0.0597621254584457
619,460,AVENIDA SANTA TEREZA,EMBU DAS ARTES,EMBU DAS ARTES,,MapBox,10616,-23.64967985,-46.8061860856945,0.792469,AVENIDA SANTA TEREZA,0.0528116507903921
620,119,RUA CORSEGA,EMBU DAS ARTES,EMBU DAS ARTES,,Google,10617,-23.6470425,-46.8044389,,RUA CORSEGA,0.1492122129051864
621,219,RUA CORSEGA,EMBU DAS ARTES,EMBU DAS ARTES,,Google,10618,-23.6470582,-46.8054034,,RUA CORSEGA,0.0409944457586068
622,3621,AVENIDA ROTARY,EMBU DAS ARTES,EMBU DAS ARTES,,TomTom,10619,-23.64376,-46.80881,14.0704584122,AVENIDA ROTARY,0.0400031570941829
623,60,AVENIDA KIZAEMON TAKEUTI,EMBU DAS ARTES,EMBU DAS ARTES,,TomTom,10620,-23.64352,-46.80725,12.3027057648,AVENIDA KIZAEMON TAKEUTI,0.021374168461915
624,125,RUA BUTANTA,EMBU DAS ARTES,EMBU DAS ARTES,,TomTom,10621,-23.65012,-46.80418,13.9074802399,RUA BUTANTA,0.019510892634589
625,100,RUA BUTANTA,EMBU DAS ARTES,EMBU DAS ARTES,,Google,10622,-23.6502439,-46.8040417,,RUA BUTANTA,0.0401736990471499
626,120,RUA TURIM,EMBU DAS ARTES,EMBU DAS ARTES,,Google,10623,-23.6485129,-46.80310559999999,,RUA TURIM,0.017193883117467
627,55,RUA BELGRADO,EMBU DAS ARTES,EMBU DAS ARTES,,TomTom,10624,-23.64726,-46.80287,13.9074802399,RUA BELGRADO,0.0093272119406297
628,57,RUA HAMBURGO,EMBU DAS ARTES,EMBU DAS ARTES,,Google,10625,-23.6466182,-46.8028969,,RUA HAMBURGO,0.006181719604014
629,16,AVENIDA DO REALISMO,EMBU DAS ARTES,EMBU DAS ARTES,,Google,10626,-23.6560112,-46.799946,,AVENIDA DO REALISMO,0.0422095529223881
630,50,RUA RAINHA ELIZABETH,EMBU DAS ARTES,EMBU DAS ARTES,,Google,10627,-23.6506464,-46.79974900000001,,RUA RAINHA ELIZABETH,0.0976923239340541
631,365,RUA JACANA,EMBU DAS ARTES,EMBU DAS ARTES,,Google,10628,-23.654208,-46.7939194,,RUA JACANA,0.1350423375042087
632,202,ESTRADA ITAPECERICA A CAMPO LIMPO,EMBU DAS ARTES,EMBU DAS ARTES,,TomTom,10629,-23.65106,-46.79398,18.1833972931,ESTRADA ITAPECERICA A CAMPO LIMPO,0.0112974535363174
633,5225,AVENIDA JOAO PAULO II,EMBU DAS ARTES,EMBU DAS ARTES,,Google,10630,-23.64794,-46.7976706,,AVENIDA JOAO PAULO II,0.0031973789446781
634,485,RUA GABRIEL DE PAULA,TABOAO DONA SERRA,TABOAO DA SERRA,,TomTom,10631,-23.64422,-46.79598,16.0262870789,RUA GABRIEL DE PAULA,0.0290296882748473
635,590,RUA MANOEL LEITE DONA CUNHA,TABOAO DONA SERRA,TABOAO DA SERRA,,TomTom,10632,-23.64445,-46.79389,15.5656042099,RUA MANOEL LEITE DONA CUNHA,0.044528539273078
636,282,RUA SEBASTIAO MORAES CAMARGO,TABOAO DONA SERRA,TABOAO DA SERRA,,TomTom,10633,-23.64186,-46.79392,15.3173131943,RUA SEBASTIAO MORAES CAMARGO,0.1000241175575729
637,428,RUA HEITOR VILA LOBOS,TABOAO DONA SERRA,TABOAO DA SERRA,,TomTom,10634,-23.63896,-46.80793,13.4513025284,RUA HEITOR VILA LOBOS,0.2167080192483162
638,       800,FERNANDO FERNANDES,TABOAO DONA SERRA,TABOAO DA SERRA,,Google,10635,-23.6417861,-46.8053398,,FERNANDO FERNANDES,0.013857821374014
639,51,MISSIONARIOS DO DIVINO PASTOR,TABOAO DONA SERRA,TABOAO DA SERRA,,Google,10636,-23.6415492,-46.8038148,,MISSIONARIOS DO DIVINO PASTOR,0.0327765162995878
640,74,RUA ANGELA ROSA DIAS,TABOAO DONA SERRA,TABOAO DA SERRA,,Google,10637,-23.640229,-46.80216129999999,,RUA ANGELA ROSA DIAS,0.0202900328363875
641,107,RUA OSMAR ANTONIO DONA SILVA,TABOAO DONA SERRA,TABOAO DA SERRA,,Google,10638,-23.6392498,-46.80230359999999,,RUA OSMAR ANTONIO DONA SILVA,0.0026121490737496
642,212,RUA JOSE PEDRO NOGUEIRA FILHO,TABOAO DONA SERRA,TABOAO DA SERRA,,MapBox,10639,-23.6388999,-46.8009075,0.602795,RUA JOSE PEDRO NOGUEIRA FILHO,0.0139885529578007
643,210,RUA JOSE PEDRO NOGUEIRA FILHO,TABOAO DONA SERRA,TABOAO DA SERRA,,MapBox,10640,-23.6388999,-46.8009075,0.602795,RUA JOSE PEDRO NOGUEIRA FILHO,0.013336203418878
644,414,RUA MANOEL CASSIANO DE MORAES,TABOAO DONA SERRA,TABOAO DA SERRA,,TomTom,10641,-23.6325,-46.80461,16.9806995392,RUA MANOEL CASSIANO DE MORAES,0.2611620964911494
645,57,RUA MIGUEL CARLOS SILVA,TABOAO DONA SERRA,TABOAO DA SERRA,,TomTom,10642,-23.63505,-46.80373,16.0193157196,RUA MIGUEL CARLOS SILVA,0.0102310395412959
646,338,RUA LUIZ QUEIROZ,TABOAO DONA SERRA,TABOAO DA SERRA,,Google,10643,-23.6330861,-46.8039612,,RUA LUIZ QUEIROZ,0.2103228046728295
647,77,RUA VICENTE LEPORACE,TABOAO DONA SERRA,TABOAO DA SERRA,,TomTom,10644,-23.63161,-46.80521,13.8773012161,RUA VICENTE LEPORACE,0.1991156121027088
648,305,RUA VICENTE LEPORACE,TABOAO DONA SERRA,TABOAO DA SERRA,,TomTom,10645,-23.63098,-46.80941,13.7165613174,RUA VICENTE LEPORACE,0.4406523328302155
649,40,RUA AURELIO PASI,TABOAO DONA SERRA,TABOAO DA SERRA,,TomTom,10646,-23.62701,-46.80727,13.7165613174,RUA AURELIO PASI,0.0095063460912486
650,39,RUA ISIDE BETRO LUPO ISSA,TABOAO DONA SERRA,TABOAO DA SERRA,,TomTom,10647,-23.62641,-46.80536,17.9106388092,RUA ISIDE BETRO LUPO ISSA,0.0225007696677634
651,28,RUA ISIDE BETRO LUPO ISSA,TABOAO DONA SERRA,TABOAO DA SERRA,,Google,10648,-23.6262189,-46.8053844,,RUA ISIDE BETRO LUPO ISSA,0.0401407823453045
652,19,RUA MARIO NISTICO,TABOAO DONA SERRA,TABOAO DA SERRA,,Google,10649,-23.6311625,-46.80553889999999,,RUA MARIO NISTICO,0.1838400551618182
653,171,RUA JURANDIR CABELHO,TABOAO DONA SERRA,TABOAO DA SERRA,,Google,10650,-23.6412278,-46.7995943,,RUA JURANDIR CABELHO,0.0070133305031151
654,135,RUA CARLOS FERNANDES,TABOAO DONA SERRA,TABOAO DA SERRA,,Google,10651,-23.6411213,-46.798898,,RUA CARLOS FERNANDES,0.0042805001407324
655,75,RUA EUCLIDES PAGANI MARTINS,TABOAO DONA SERRA,TABOAO DA SERRA,,TomTom,10652,-23.63923,-46.80004,16.0193157196,RUA EUCLIDES PAGANI MARTINS,0.0146006200674102
656,80,RUA TERRA RICA,TABOAO DONA SERRA,TABOAO DA SERRA,,TomTom,10653,-23.64074,-46.79899,12.1588354111,RUA TERRA RICA,0.0317051450835741
657,201,RUA SETE DE SETEMBRO,TABOAO DONA SERRA,TABOAO DA SERRA,,TomTom,10654,-23.63824,-46.798,13.3433113098,RUA SETE DE SETEMBRO,0.0158239335484452
658,130,RUA VINTE E CINCO DE DEZEMBRO,TABOAO DONA SERRA,TABOAO DA SERRA,,Google,10655,-23.6390319,-46.7980849,,RUA VINTE E CINCO DE DEZEMBRO,0.0281443810933726
659,354,RUA ROBERTO P IGNACIO,TABOAO DONA SERRA,TABOAO DA SERRA,,Google,10656,-23.6323355,-46.7977457,,RUA ROBERTO P IGNACIO,0.2737105672684831
660,70,RUA MANOEL LEITE DONA CUNHA,TABOAO DONA SERRA,TABOAO DA SERRA,,TomTom,10657,-23.64205,-46.79573,15.5656042099,RUA MANOEL LEITE DONA CUNHA,0.0124542397553854
661,226,RUA MANOEL ANTONIO FERREIRA,TABOAO DONA SERRA,TABOAO DA SERRA,,TomTom,10658,-23.63806,-46.79374,16.0193157196,RUA MANOEL ANTONIO FERREIRA,0.0337623758623456
662,78,GERALDO SAO,TABOAO DONA SERRA,TABOAO DA SERRA,,TomTom,10659,-23.63625,-46.79636,11.2758436203,GERALDO SAO,0.00568320221334
663,56,RUA MARIA CANDIDA SILVA,TABOAO DONA SERRA,TABOAO DA SERRA,,Google,10660,-23.6368274,-46.7934287,,RUA MARIA CANDIDA SILVA,0.0269015260603103
664,40,RUA CERRO LARGO,TABOAO DONA SERRA,TABOAO DA SERRA,,TomTom,10661,-23.63244,-46.79988,13.7165613174,RUA CERRO LARGO,0.0114922516574522
665,391,AVENIDA CID NELSON JORDANO,TABOAO DONA SERRA,TABOAO DA SERRA,,MapBox,10662,-23.629712,-46.799902,0.627037,AVENIDA CID NELSON JORDANO,0.3360159655273239
666,12,AVENIDA JOSE PARIS,TABOAO DONA SERRA,TABOAO DA SERRA,,Google,10663,-23.6321507,-46.7969504,,AVENIDA JOSE PARIS,0.0568636051582512
667,185,RUA GOVERNADOR LEONEL BRIZOLA,TABOAO DONA SERRA,TABOAO DA SERRA,,MapBox,10664,-23.6276768,-46.7940243,0.582593,RUA GOVERNADOR LEONEL BRIZOLA,0.0047537671025141
668,182,RUA DOUTOR JORGE BALDUZZI,EMBU DAS ARTES,EMBU DAS ARTES,,Google,10665,-23.6193937,-46.8140469,,RUA DOUTOR JORGE BALDUZZI,0.0516911965001762
669,32,AVENIDA AUSTRALIA,EMBU DAS ARTES,EMBU DAS ARTES,,MapBox,10666,-23.6189083,-46.8148363,0.673333,AVENIDA AUSTRALIA,0.0438439323809846
670,155,RUA ILHA COMPRIDA,EMBU DAS ARTES,EMBU DAS ARTES,,Google,10667,-23.6242358,-46.8131862,,RUA ILHA COMPRIDA,0.0093544255115384
671,63,RUA SAO SEBASTIAO,EMBU DAS ARTES,EMBU DAS ARTES,,Google,10668,-23.6239204,-46.8128618,,RUA SAO SEBASTIAO,0.0109061671221217
672,72,RUA MARGARIDA,TABOAO DONA SERRA,TABOAO DA SERRA,,Google,10669,-23.6253339,-46.8091149,,RUA MARGARIDA,0.0226979791397338
673,255,EST MUNICIPAL DO ESPIGAO DO,COTIA,COTIA,,TomTom,10670,-23.60301,-46.82437,16.2587013245,EST MUNICIPAL DO ESPIGAO DO,0.0170444299582311
674,777,RUA MERCEDES DE ANDRADE MARTINS,COTIA,COTIA,,Google,10671,-23.609514,-46.8282264,,RUA MERCEDES DE ANDRADE MARTINS,1.0387494403015585
675,S/N,ESTRADA DO MUNICIPAL DO ESPIGAO,COTIA,COTIA,,Google,10672,-23.5975844,-46.8197327,,ESTRADA DO MUNICIPAL DO ESPIGAO,0.1596615204896559
676,1413,ESTRADA DO MUNICIPAL DO ESPIGAO,COTIA,COTIA,,Google,10673,-23.5953026,-46.81794240000001,,ESTRADA DO MUNICIPAL DO ESPIGAO,0.0056308943433079
677,30,RUA ODETE DOMINGUES MARQUES,TABOAO DONA SERRA,TABOAO DA SERRA,,TomTom,10674,-23.62469,-46.80525,15.3962001801,RUA ODETE DOMINGUES MARQUES,0.0659163790904263
678,210,RUA JOSE MARIA DE MELO,TABOAO DONA SERRA,TABOAO DA SERRA,,TomTom,10675,-23.62002,-46.80561,18.1273670197,RUA JOSE MARIA DE MELO,0.0213776654298466
679,231,RUA CONSTANTINO DIAS LOPES,TABOAO DONA SERRA,TABOAO DA SERRA,,TomTom,10676,-23.62497,-46.80066,15.8337631226,RUA CONSTANTINO DIAS LOPES,0.0720757613764303
680,34,RUA LUIZA HELLMEISTER JURADO,TABOAO DONA SERRA,TABOAO DA SERRA,,MapBox,10677,-23.6244863,-46.8014416,0.582593,RUA LUIZA HELLMEISTER JURADO,0.0130968487134913
681,       106,DAMIAO,TABOAO DONA SERRA,TABOAO DA SERRA,,Google,10678,-23.6208976,-46.8041276,,DAMIAO,0.0405602872129007
682,101,RUA CONSTANTINO DIAS LOPES,TABOAO DONA SERRA,TABOAO DA SERRA,,TomTom,10679,-23.62543,-46.80088,16.0193157196,RUA CONSTANTINO DIAS LOPES,0.0053428969886892
683,595,RUA MARTIRO ANGELO DERENZE,TABOAO DONA SERRA,TABOAO DA SERRA,,TomTom,10680,-23.62315,-46.79789,15.8337631226,RUA MARTIRO ANGELO DERENZE,0.0103094801014055
684,274,BERNARDO JOAQUIM DE MORAES,TABOAO DONA SERRA,TABOAO DA SERRA,,TomTom,10681,-23.62071,-46.7977,15.750418663,BERNARDO JOAQUIM DE MORAES,0.0060374417330248
685,10,RUA ARACA,TABOAO DONA SERRA,TABOAO DA SERRA,,Google,10682,-23.626409,-46.7926704,,RUA ARACA,0.1437859980622424
686,11,RUA ESMERALDA,TABOAO DONA SERRA,TABOAO DA SERRA,,TomTom,10683,-23.62135,-46.79792,11.6932907104,RUA ESMERALDA,0.1939492928774558
687,800,AVENIDA AYRTON SENNA,TABOAO DONA SERRA,TABOAO DA SERRA,,Google,10684,-23.6116483,-46.7984442,,AVENIDA AYRTON SENNA,0.0177672130618743
688,420,RUA TOM JOBIM,TABOAO DONA SERRA,TABOAO DA SERRA,,TomTom,10685,-23.6112,-46.79641,13.8773012161,RUA TOM JOBIM,0.0959664601093051
689,126,RUA IDA ROMUSSI GASPARINETTI,TABOAO DONA SERRA,TABOAO DA SERRA,,TomTom,10686,-23.61299,-46.79429,16.0193157196,RUA IDA ROMUSSI GASPARINETTI,0.0044159292078923
690,"KM19,5",ROD RAPOSO TAVARES,SAO PAULO,RAPOSO TAVARES,,Google,10687,-23.5891658,-46.7924677,,ROD RAPOSO TAVARES,1.4079678891445953
691,"KM19,5",ROD RAPOSO TAVARES,SAO PAULO,RAPOSO TAVARES,,Google,10689,-23.5891658,-46.7924677,,ROD RAPOSO TAVARES,1.4079678891445953
692,"KM19,5",ROD RAPOSO TAVARES,SAO PAULO,RAPOSO TAVARES,,Google,10690,-23.5891658,-46.7924677,,ROD RAPOSO TAVARES,1.4079678891445953
693,"K 19,5",RODOVIA RAPOSO TAVARES,SAO PAULO,RAPOSO TAVARES,,MapBox,10688,-23.590446,-46.798877,0.752346,RODOVIA RAPOSO TAVARES,0.7258646028920468
694,245,AVENIDA VATICANO,SAO PAULO,RAPOSO TAVARES,,OpenRouteService,10691,-23.603275,-46.795666,0.8,AVENIDA VATICANO,0.1054394856567829
695,849,NAZIR MIGUEL,SAO PAULO,RAPOSO TAVARES,,TomTom,10692,-23.60118,-46.79008,11.9079704285,NAZIR MIGUEL,0.3333349373147442
696,849,NAZIR MIGUEL,SAO PAULO,RAPOSO TAVARES,,TomTom,10693,-23.60118,-46.79008,11.9079704285,NAZIR MIGUEL,0.3333349373147442
697,SN,NAZIR MIGUEL,SAO PAULO,RAPOSO TAVARES,,Google,10694,-23.6024719,-46.7926641,,NAZIR MIGUEL,0.0326337556792583
698,SN,NAZIR MIGUEL,SAO PAULO,RAPOSO TAVARES,,Google,10695,-23.6024719,-46.7926641,,NAZIR MIGUEL,0.0326337556792583
699,       282,VITAL DE FRESCAROLO,SAO PAULO,RAPOSO TAVARES,,MapBox,10696,-23.6011429,-46.7926624,0.678889,VITAL DE FRESCAROLO,0.0198091136315145
700,490,RUA INACIO CERVANTES,SAO PAULO,RAPOSO TAVARES,,MapBox,10697,-23.594359,-46.79739,0.795556,RUA INACIO CERVANTES,0.0141777766256712
701,480,RUA INACIO CERVANTES,SAO PAULO,RAPOSO TAVARES,,TomTom,10698,-23.59426,-46.7974,14.1170272827,RUA INACIO CERVANTES,0.0105926022230235
702,117,SAMUEL DAVID,SAO PAULO,RAPOSO TAVARES,,Google,10699,-23.6005671,-46.7966479,,SAMUEL DAVID,0.0122823248928678
703,        48,SANTIAGO FERRER,SAO PAULO,RAPOSO TAVARES,,Google,10700,-23.5992833,-46.7967728,,SANTIAGO FERRER,0.0058711193370486
704,S/N,SINFONIA MILITAR TRAV H,SAO PAULO,PARELHEIROS,,Google,10701,-23.8071743,-46.7658991,,SINFONIA MILITAR TRAV H,0.4197924500830782
705,266,RUA BENJAMIM DIEMAR,SAO PAULO,PARELHEIROS,,TomTom,10702,-23.83921,-46.7368,14.1170272827,RUA BENJAMIM DIEMAR,0.0672463530817473
706,47,RUA CARMELIA T RAIMONDI,SAO PAULO,PARELHEIROS,,TomTom,10703,-23.74009,-46.68072,14.9615764618,RUA CARMELIA T RAIMONDI,12.715672540380544
707,110,CONSTANTINO BRUNO DI BARTOLOMEU,SAO PAULO,PARELHEIROS,,TomTom,10704,-23.8273,-46.73613,14.6572637558,CONSTANTINO BRUNO DI BARTOLOMEU,0.0246503726277137
708,210,ESTRADA DE PARELHEIROS KM,SAO PAULO,PARELHEIROS,,TomTom,10705,-23.77559,-46.72185,12.1487960815,ESTRADA DE PARELHEIROS KM,5.755393263214745
709,33,RUA PEDRO ROSCHEL,SAO PAULO,PARELHEIROS,,Google,10706,-23.8267436,-46.7302151,,RUA PEDRO ROSCHEL,0.0334167552114507
710,101,GENTIL SCHUNCK ROSCHEL,SAO PAULO,PARELHEIROS,,TomTom,10707,-23.82891,-46.72735,14.0464134216,GENTIL SCHUNCK ROSCHEL,0.0033334704315776
711,79,GENTIL SCHUNCK ROSCHEL,SAO PAULO,PARELHEIROS,,TomTom,10708,-23.82872,-46.72733,14.0464134216,GENTIL SCHUNCK ROSCHEL,0.0021289740372411
712,1414,RUA JUSA DO,SAO PAULO,PARELHEIROS,,MapBox,10709,-23.821902,-46.751595,0.74,RUA JUSA DO,0.2005136247652565
713,57,RUA JOSE MENDES NETO,SAO PAULO,PARELHEIROS,,Google,10710,-23.8116719,-46.7376502,,RUA JOSE MENDES NETO,0.0095857082960379
714,80,JOSE VILA BUSQUETS,SAO PAULO,PARELHEIROS,,TomTom,10711,-23.80783,-46.7388,14.0464134216,JOSE VILA BUSQUETS,0.1291388535756168
715,30,RUA ANTONIO MARCONDES BOETA,SAO PAULO,PARELHEIROS,,Google,10712,-23.8087095,-46.7357231,,RUA ANTONIO MARCONDES BOETA,0.0332123126324125
716,550,AMERICO COXA,SAO PAULO,PARELHEIROS,,MapBox,10713,-23.8176518,-46.73309755,0.724127,AMERICO COXA,0.0885870766635557
